fsq_name,fsq_categories,fsq_latitude,fsq_longitude,city_bike_latitude,city_bike_longitude,fsq_distance (m),fsq_rating,fsq_popularity,fsq_price
Restaurant Prima Luna,['Italian Restaurant'],45.617439,-73.593995,45.61749978312808,-73.60601127147675,941,7.4,0.9855101323649994,1.0
Salle Désilets,"['Office Building', 'Music Venue']",45.617818,-73.606,45.61749978312808,-73.60601127147675,19,,0.9615321541525126,
Fun O Max,"['Playground', 'Recreation Center']",45.618397,-73.605533,45.61749978312808,-73.60601127147675,106,,0.5147124282534848,
Ecafé,['Restaurant'],45.611729,-73.606237,45.61749978312808,-73.60601127147675,641,,,
Gagnon Multi Services Inc,"['Agriculture and Forestry Service', 'Farm']",45.618448,-73.597475,45.61749978312808,-73.60601127147675,659,,0.7225723322010074,
Ge Sports,"['Sporting Goods Retail', 'Hiking Trail']",45.61855,-73.614667,45.61749978312808,-73.60601127147675,682,,,
Entreprise Viceversa,['Garden'],45.620482,-73.598124,45.61749978312808,-73.60601127147675,713,,0.26819725899027763,
Restaurant Shekz,['Restaurant'],45.623543,-73.60138,45.61749978312808,-73.60601127147675,773,,0.5489867635000586,
Grillades Sizzle,"['Bistro', 'Portuguese Restaurant']",45.624004,-73.601104,45.61749978312808,-73.60601127147675,811,,0.9951153801101089,
Pizzeria Etc,['Pizzeria'],45.617734,-73.593471,45.61749978312808,-73.60601127147675,964,,0.6958767716996603,1.0
Le Saint Bock,"['Bar', 'American Restaurant', 'Gastropub']",45.515893,-73.564685,45.516926210319546,-73.56425732374191,132,8.5,0.97897387841162,2.0
Mamie Clafoutis,"['Café', 'Sandwich Spot', 'Bakery']",45.518104,-73.57052,45.516926210319546,-73.56425732374191,505,9.0,0.9549959001991332,2.0
Square Saint-Louis,['Urban Park'],45.516863,-73.570018,45.516926210319546,-73.56425732374191,439,8.7,0.9856741243996721,
La Fabrique Bistrot,['Restaurant'],45.51801,-73.569549,45.516926210319546,-73.56425732374191,426,8.6,0.9279606419116786,4.0
Saint-Houblon,"['Bistro', 'Bar', 'Gastropub']",45.514696,-73.562032,45.516926210319546,-73.56425732374191,301,8.2,0.9748623638280426,3.0
Place Émilie-Gamelin,['Park'],45.515305,-73.560017,45.516926210319546,-73.56425732374191,397,8.3,0.9788801686775214,
Bouillon Bilk,['Restaurant'],45.511038,-73.565936,45.516926210319546,-73.56425732374191,675,9.3,0.9545039240951154,3.0
Cadet,"['Wine Bar', 'Restaurant']",45.510388,-73.564365,45.516926210319546,-73.56425732374191,741,9.4,0.965538245285229,
M Telus,['Arts and Entertainment'],45.510633,-73.563501,45.516926210319546,-73.56425732374191,681,8.8,0.9631486470657139,
O'Thym,['French Restaurant'],45.518359,-73.557934,45.516926210319546,-73.56425732374191,488,8.3,0.9492444652688298,3.0
Allô! Mon Coco,"['Coffee Shop', 'Restaurant']",45.498532,-73.707616,45.506175841460966,-73.71118605136871,895,7.8,0.9824762797235563,1.0
Parc Philippe-Laheurte,['Park'],45.507107,-73.718331,45.506175841460966,-73.71118605136871,554,7.1,0.9413728476045449,
Challenger la Piazza,['Mediterranean Restaurant'],45.512823,-73.711459,45.506175841460966,-73.71118605136871,755,6.9,0.9181211198313225,2.0
Tai Express,"['Fast Food Restaurant', 'Thai Restaurant']",45.498486,-73.707082,45.506175841460966,-73.71118605136871,892,6.5,0.8649759868806373,2.0
Boisé du parc Marcel-Laurin,['Hiking Trail'],45.506926,-73.705634,45.506175841460966,-73.71118605136871,422,,0.8402483307953613,
McDonald's,"['Fast Food Restaurant', 'Burger Joint']",45.498726,-73.706509,45.506175841460966,-73.71118605136871,902,6.0,0.9963101792198664,1.0
Centre d'exposition Lethbridge,['Arts and Entertainment'],45.504036,-73.70529,45.506175841460966,-73.71118605136871,525,,0.7425442192807777,
Nirvana Sushi,['Sushi Restaurant'],45.512891,-73.710929,45.506175841460966,-73.71118605136871,546,,0.862902659013705,2.0
Parc de l'Écu,['Playground'],45.511815,-73.71341,45.506175841460966,-73.71118605136871,635,,0.7947288274569521,
Parc des Équinoxes,['Playground'],45.510369,-73.717235,45.506175841460966,-73.71118605136871,665,,0.8962633243528172,
Decarie Hot Dog,"['Hot Dog Joint', 'Poutine Restaurant', 'Fast Food Restaurant']",45.513691,-73.681551,45.5129938566323,-73.68249848484993,90,7.7,0.976619421342392,1.0
A&W Restaurant,"['Fast Food Restaurant', 'American Restaurant']",45.513951,-73.682674,45.5129938566323,-73.68249848484993,104,7.5,0.9888485416422631,1.0
Kyoto Restaurants Japonais,['Sushi Restaurant'],45.512539,-73.679622,45.5129938566323,-73.68249848484993,210,7.4,0.9601265081410332,2.0
Vai Burger,['Fast Food Restaurant'],45.513543,-73.683193,45.5129938566323,-73.68249848484993,96,7.3,0.8346726016164929,1.0
Elounda,"['Mediterranean Restaurant', 'Greek Restaurant', 'Seafood Restaurant']",45.51051,-73.686867,45.5129938566323,-73.68249848484993,468,7.5,0.9322947171137402,3.0
Restaurant Yi Pin Xiang,['Dongbei Restaurant'],45.511054,-73.677294,45.5129938566323,-73.68249848484993,547,7.3,0.9710085510132365,
Crazy Falafel,"['Lebanese Restaurant', 'Fast Food Restaurant', 'Falafel Restaurant']",45.520362,-73.675143,45.5129938566323,-73.68249848484993,997,7.5,0.976584280192105,1.0
Ben & Florentine,['Fast Food Restaurant'],45.512014,-73.693556,45.5129938566323,-73.68249848484993,867,7.3,0.9645074382101441,1.0
Ottavio,"['Italian Restaurant', 'Pizzeria']",45.510113,-73.689469,45.5129938566323,-73.68249848484993,596,6.9,0.9785287571746515,2.0
Bistro Sawadika,"['Bistro', 'Thai Restaurant']",45.510289,-73.686569,45.5129938566323,-73.68249848484993,435,6.7,0.9840107766194214,2.0
Lylac,['Mediterranean Restaurant'],45.516335,-73.69608,45.51473429416659,-73.69144901633263,413,8.5,0.9952676584280192,1.0
Restaurant Asie Moderne,"['Cambodian Restaurant', 'Thai Restaurant']",45.519321,-73.697298,45.51473429416659,-73.69144901633263,697,8.4,0.9906524540236618,1.0
Ben & Florentine,['Fast Food Restaurant'],45.512014,-73.693556,45.51473429416659,-73.69144901633263,324,7.3,0.9645074382101441,1.0
Decarie Hot Dog,"['Hot Dog Joint', 'Poutine Restaurant', 'Fast Food Restaurant']",45.513691,-73.681551,45.51473429416659,-73.69144901633263,775,7.7,0.976619421342392,1.0
Elounda,"['Mediterranean Restaurant', 'Greek Restaurant', 'Seafood Restaurant']",45.51051,-73.686867,45.51473429416659,-73.69144901633263,593,7.5,0.9322947171137402,3.0
A&W Restaurant,"['Fast Food Restaurant', 'American Restaurant']",45.513951,-73.682674,45.51473429416659,-73.69144901633263,674,7.5,0.9888485416422631,1.0
St-Hubert Express,"['Restaurant', 'South American Restaurant']",45.51232,-73.692549,45.51473429416659,-73.69144901633263,270,6.9,0.9841162000702823,
Vai Burger,['Fast Food Restaurant'],45.513543,-73.683193,45.51473429416659,-73.69144901633263,632,7.3,0.8346726016164929,1.0
Kyoto Restaurants Japonais,['Sushi Restaurant'],45.512539,-73.679622,45.51473429416659,-73.69144901633263,933,7.4,0.9601265081410332,2.0
Ottavio,"['Italian Restaurant', 'Pizzeria']",45.510113,-73.689469,45.51473429416659,-73.69144901633263,517,6.9,0.9785287571746515,2.0
Restaurant Kuljit India,['South Indian Restaurant'],45.524554,-73.712889,45.52234149817879,-73.72167885303497,697,8.5,0.8869274920932412,2.0
Première Moisson,"['Dessert Shop', 'Restaurant', 'Bakery']",45.518118,-73.713583,45.52234149817879,-73.72167885303497,783,8.0,0.9832259575963453,1.0
Petinos,"['Import and Export Service', 'Restaurant']",45.518001,-73.713773,45.52234149817879,-73.72167885303497,763,7.9,0.9919058217172309,1.0
Chocolats Favoris,"['Dessert Shop', 'Restaurant']",45.51841,-73.713255,45.52234149817879,-73.72167885303497,776,7.4,0.9383507086798641,1.0
Tim Hortons,"['Restaurant', 'Cafe, Coffee, and Tea House']",45.524468,-73.711626,45.52234149817879,-73.72167885303497,802,6.5,0.9986997774393815,1.0
Subway,"['Fast Food Restaurant', 'Deli']",45.518697,-73.713119,45.52234149817879,-73.72167885303497,769,6.4,0.8687712311116317,1.0
Parc Marlborough,['Park'],45.52263,-73.720429,45.52234149817879,-73.72167885303497,118,,0.0375658896567881,
Pizza Pizza,"['Fast Food Restaurant', 'Pizzeria']",45.518585,-73.713018,45.52234149817879,-73.72167885303497,805,6.2,0.8558392878060208,1.0
Malborough Park,['Park'],45.524234,-73.722472,45.52234149817879,-73.72167885303497,224,,0.9926672133067822,
Poulet Mankal,"['Lebanese Restaurant', 'Diner']",45.527206,-73.71904,45.52234149817879,-73.72167885303497,578,,,1.0
Stade de soccer de Montréal,['Stadium'],45.562607,-73.639155,45.566869345371856,-73.64101678133011,569,8.3,0.9802038186716645,
Boulangerie & Pâtisserie Salerno,"['Pizzeria', 'Pastry Shop', 'Bakery']",45.570836,-73.63977,45.566869345371856,-73.64101678133011,455,7.8,0.955593299754012,1.0
Zagrum,['Restaurant'],45.568503,-73.653467,45.566869345371856,-73.64101678133011,972,8.0,0.039732927257818906,2.0
Restaurant Chez Marie,['Restaurant'],45.56763,-73.642505,45.566869345371856,-73.64101678133011,144,,0.8148178517043458,
Bistro Bar MC,"['Coffee Shop', 'Bistro']",45.569967,-73.640566,45.566869345371856,-73.64101678133011,332,,0.9962164694857678,2.0
Parc Champdore,['Park'],45.569426,-73.636522,45.566869345371856,-73.64101678133011,430,,0.9847018859083987,
Parc des Hirondelles,['Landmarks and Outdoors'],45.569093,-73.636123,45.566869345371856,-73.64101678133011,475,,0.7447463980320956,
Maison du Ravioli,['Deli'],45.571646,-73.639119,45.566869345371856,-73.64101678133011,545,,0.9397446409745812,
Cassy Rich,['Performing Arts Venue'],45.568685,-73.647507,45.566869345371856,-73.64101678133011,548,,0.3364765139978915,
Parc Frédéric-Back – Complexe environnemental de Saint-Michel,['Garden'],45.563672,-73.63439,45.566869345371856,-73.64101678133011,636,,0.9919878177345671,
Restaurant Pizza Nino,['Pizzeria'],45.453049,-73.593743,45.44791581215845,-73.58381867408752,970,7.9,0.8998945765491391,4.0
Frejus St Raphael Cafe,"['Café', 'Restaurant']",45.44922,-73.572772,45.44791581215845,-73.58381867408752,887,7.7,0.9534145484362189,1.0
Café Central,"['Coffee Shop', 'Café', 'Restaurant']",45.451078,-73.592953,45.44791581215845,-73.58381867408752,799,7.5,0.9576197727538948,1.0
Restaurant Bingo Regd,"['Fast Food Restaurant', 'Diner']",45.451894,-73.572519,45.44791581215845,-73.58381867408752,988,7.3,0.9539065245402366,1.0
Parc du Quai-de-la-Tortue,['Park'],45.447545,-73.571364,45.44791581215845,-73.58381867408752,979,7.2,0.9696263324352817,
Parc de la verendrye,['Park'],45.456696,-73.582057,45.44791581215845,-73.58381867408752,998,7.0,0.7095701065948226,
Parc Beurling,"['Organization', 'Park', 'Sports and Recreation']",45.447749,-73.583656,45.44791581215845,-73.58381867408752,54,,0.9675998594353988,
Parc Riverview,['Park'],45.447613,-73.579201,45.44791581215845,-73.58381867408752,357,,0.9893288040295186,
Wilson Park,['Playground'],45.44852,-73.579231,45.44791581215845,-73.58381867408752,359,,0.9080473234157198,
Clifford Park,['Park'],45.450132,-73.589247,45.44791581215845,-73.58381867408752,473,,0.9735270001171372,
Poissonnerie la Sirene la Mer,"['Lebanese Restaurant', 'Seafood Restaurant', 'Mediterranean Restaurant']",45.516191,-73.630334,45.51293324107222,-73.63389015197754,448,7.8,0.9923040880871501,3.0
Leonidas Mont Royal,"['Coffee Shop', 'Restaurant']",45.514909,-73.645454,45.51293324107222,-73.63389015197754,913,8.2,0.9513646480028113,1.0
TMR Arena,['Stadium'],45.514737,-73.640071,45.51293324107222,-73.63389015197754,521,7.5,0.97640857444067,
Pizzaiolle,"['Italian Restaurant', 'Pizzeria']",45.516312,-73.643563,45.51293324107222,-73.63389015197754,835,7.7,0.9203818671664519,1.0
Dagwoods la Sandwicherie,"['Restaurant', 'Sandwich Spot']",45.520682,-73.62748,45.51293324107222,-73.63389015197754,997,7.2,0.9065479676701418,1.0
Subway,"['Fast Food Restaurant', 'Deli']",45.508859,-73.625004,45.51293324107222,-73.63389015197754,795,6.4,0.8955956424973645,1.0
Parc Dunkerque,['Park'],45.512348,-73.634759,45.51293324107222,-73.63389015197754,84,,0.4040763734332904,
Tim Hortons,"['Restaurant', 'Cafe, Coffee, and Tea House']",45.508845,-73.625682,45.51293324107222,-73.63389015197754,778,6.3,0.9573737847018859,1.0
Sarah Cuisine Créole,['Restaurant'],45.512945,-73.630662,45.51293324107222,-73.63389015197754,251,,,
Dupond & Dupont,['French Restaurant'],45.516844,-73.642564,45.51293324107222,-73.63389015197754,808,6.1,0.9105189176525712,3.0
Parc des Rapides,['Park'],45.42948,-73.59409,45.42947143740888,-73.59309915918857,120,8.4,0.9962281832025301,
Restaurant Dani's Pizzeria,['Pizzeria'],45.430643,-73.598286,45.42947143740888,-73.59309915918857,408,7.4,0.949607590488462,1.0
Centre Henri-Lemieux,['Arts and Entertainment'],45.430669,-73.594274,45.42947143740888,-73.59309915918857,166,,0.9745226660419352,
Restaurant Crème Café,['Restaurant'],45.428503,-73.594687,45.42947143740888,-73.59309915918857,169,,0.9299051188942251,
Ristorante Riventino,['Italian Restaurant'],45.428555,-73.594931,45.42947143740888,-73.59309915918857,182,,0.9018976221154973,2.0
Nouveau Quebecois,['Pizzeria'],45.4299,-73.598504,45.42947143740888,-73.59309915918857,425,,0.4716645191519269,1.0
Centrale Pizzeria,['Pizzeria'],45.432024,-73.597364,45.42947143740888,-73.59309915918857,437,,,1.0
The Horde,['Arcade'],45.432088,-73.599784,45.42947143740888,-73.59309915918857,582,,0.3144430127679513,
Parc Raymond,['Park'],45.427725,-73.602156,45.42947143740888,-73.59309915918857,803,,0.9854867049314747,
Almondo Pizzeria,['Pizzeria'],45.429958,-73.598457,45.42947143740888,-73.59309915918857,421,,,
Pizza Heure de Pointe,['Pizzeria'],45.524378,-73.521255,45.52331869398737,-73.52012693881989,132,8.2,0.9825085962027209,1.0
A&W Restaurant,"['Fast Food Restaurant', 'American Restaurant']",45.524264,-73.521252,45.52331869398737,-73.52012693881989,146,6.7,0.8379428913140978,1.0
Tutti Frutti,"['Restaurant', 'Breakfast Spot']",45.527613,-73.512828,45.52331869398737,-73.52012693881989,756,7.3,0.9297353864553745,1.0
Thai Express,"['Asian Restaurant', 'Thai Restaurant']",45.524832,-73.521269,45.52331869398737,-73.52012693881989,190,6.7,0.8264314546269995,2.0
Rôtisserie St-Hubert,"['Restaurant', 'South American Restaurant']",45.528599,-73.514699,45.52331869398737,-73.52012693881989,611,7.0,0.9687546718493049,
Subway,"['Fast Food Restaurant', 'Deli']",45.523583,-73.521231,45.52331869398737,-73.52012693881989,106,6.3,0.9790701151143669,1.0
Tim Hortons,"['Restaurant', 'Cafe, Coffee, and Tea House']",45.52499,-73.521904,45.52331869398737,-73.52012693881989,160,6.3,0.9838540888025116,1.0
Subway,"['Fast Food Restaurant', 'Deli']",45.517252,-73.519582,45.52331869398737,-73.52012693881989,691,6.5,0.9150844670354313,1.0
Subway,"['Fast Food Restaurant', 'Deli']",45.528198,-73.514832,45.52331869398737,-73.52012693881989,675,6.4,0.8676932276872478,1.0
Taouk du Québec,['Middle Eastern Restaurant'],45.525111,-73.52152,45.52331869398737,-73.52012693881989,130,,0.9606817162505606,2.0
St Mark Resto Pub Terrasse,['American Restaurant'],45.53631,-73.512658,45.53368199320325,-73.51526074111462,357,8.4,0.8783076693078188,2.0
Madame Thai,['Thai Restaurant'],45.536651,-73.512669,45.53368199320325,-73.51526074111462,370,8.3,0.9382568395873823,2.0
Péché Matinal,['Restaurant'],45.536941,-73.512339,45.53368199320325,-73.51526074111462,419,8.4,0.9234564209896846,1.0
Resto-pub Chez Vincent,"['Bar', 'Restaurant']",45.535998,-73.508336,45.53368199320325,-73.51526074111462,609,7.9,0.8931080879055165,2.0
Café Terrasse 1957,['Bistro'],45.537415,-73.511384,45.53368199320325,-73.51526074111462,498,7.6,0.9047690237703693,2.0
Pâtisserie O Gâteries,"['Restaurant', 'Pastry Shop', 'Bakery']",45.536137,-73.512798,45.53368199320325,-73.51526074111462,331,6.8,0.8261324562714905,1.0
Pâtisserie Rolland Inc,"['Restaurant', 'Pastry Shop', 'Bakery']",45.538589,-73.509481,45.53368199320325,-73.51526074111462,676,7.0,0.8917625953057258,1.0
Rôtisserie St-Hubert,"['Restaurant', 'South American Restaurant']",45.528599,-73.514699,45.53368199320325,-73.51526074111462,683,7.0,0.9687546718493049,
L'Gros Luxe Vieux-Longueuil,"['Bistro', 'Gastropub', 'Comfort Food Restaurant']",45.538117,-73.510339,45.53368199320325,-73.51526074111462,632,6.9,0.9366123486320825,
Silva Grillades,"['Portuguese Restaurant', 'Steakhouse']",45.538521,-73.510012,45.53368199320325,-73.51526074111462,680,6.9,0.8641052474211391,3.0
Tim Hortons,"['Restaurant', 'Cafe, Coffee, and Tea House']",45.535994,-73.496997,45.53722603812578,-73.49506705999374,197,6.8,0.9615787113170877,1.0
Subway,"['Fast Food Restaurant', 'Deli']",45.535322,-73.496492,45.53722603812578,-73.49506705999374,236,6.4,0.930183883988638,1.0
Thai Express,"['Restaurant', 'Thai Restaurant']",45.535374,-73.496735,45.53722603812578,-73.49506705999374,246,6.2,0.9279413963223202,
McDonald's,"['Fast Food Restaurant', 'Burger Joint']",45.543541,-73.491749,45.53722603812578,-73.49506705999374,749,6.4,0.9908805501569742,1.0
Subway,"['Fast Food Restaurant', 'Deli']",45.531858,-73.484806,45.53722603812578,-73.49506705999374,1004,6.4,0.8750186873972193,1.0
Théâtre de la Ville,"['Theater', 'Music Venue']",45.536889,-73.494843,45.53722603812578,-73.49506705999374,185,,0.8478098370458963,
Quesada Burritos and Tacos,['Tex-Mex Restaurant'],45.535654,-73.49403,45.53722603812578,-73.49506705999374,232,,0.09822095978472119,
Bento Sushi,['Restaurant'],45.536059,-73.493703,45.53722603812578,-73.49506705999374,232,,0.3405591269248019,
Wok to Go,['Chinese Restaurant'],45.533606,-73.491303,45.53722603812578,-73.49506705999374,510,,0.13200777395724322,1.0
Restaurant Bun'S and Hummer,['Burger Joint'],45.533388,-73.490812,45.53722603812578,-73.49506705999374,537,,0.6566003886978622,1.0
Pizza Heure de Pointe,['Pizzeria'],45.524378,-73.521255,45.52841043752244,-73.51716578006744,555,8.2,0.9825085962027209,1.0
St Mark Resto Pub Terrasse,['American Restaurant'],45.53631,-73.512658,45.52841043752244,-73.51716578006744,948,8.4,0.8783076693078188,2.0
Madame Thai,['Thai Restaurant'],45.536651,-73.512669,45.52841043752244,-73.51716578006744,963,8.3,0.9382568395873823,2.0
Rôtisserie St-Hubert,"['Restaurant', 'South American Restaurant']",45.528599,-73.514699,45.52841043752244,-73.51716578006744,190,7.0,0.9687546718493049,
Subway,"['Fast Food Restaurant', 'Deli']",45.528198,-73.514832,45.52841043752244,-73.51716578006744,178,6.4,0.8676932276872478,1.0
A&W Restaurant,"['Fast Food Restaurant', 'American Restaurant']",45.524264,-73.521252,45.52841043752244,-73.51716578006744,556,6.7,0.8379428913140978,1.0
Pâtisserie O Gâteries,"['Restaurant', 'Pastry Shop', 'Bakery']",45.536137,-73.512798,45.52841043752244,-73.51716578006744,922,6.8,0.8261324562714905,1.0
Subway,"['Fast Food Restaurant', 'Deli']",45.523583,-73.521231,45.52841043752244,-73.51716578006744,628,6.3,0.9790701151143669,1.0
Tim Hortons,"['Restaurant', 'Cafe, Coffee, and Tea House']",45.52499,-73.521904,45.52841043752244,-73.51716578006744,545,6.3,0.9838540888025116,1.0
McDonald's,"['Fast Food Restaurant', 'Burger Joint']",45.528302,-73.512461,45.52841043752244,-73.51716578006744,365,6.0,0.9681566751382867,1.0
Le Petit Sao,['Vietnamese Restaurant'],45.466641,-73.542459,45.46714,-73.54259,52,8.1,0.9084338760688766,2.0
Mamie Clafoutis,"['Pastry Shop', 'Sandwich Spot', 'Bakery']",45.472956,-73.539075,45.46714,-73.54259,653,8.1,0.9697786107531919,1.0
Parc de la Fontaine,"['Park', 'Sports and Recreation']",45.463309,-73.544386,45.46714,-73.54259,447,7.6,0.9773456717816563,
Thai Express,"['Restaurant', 'Thai Restaurant']",45.467571,-73.541423,45.46714,-73.54259,90,6.5,0.9186013822185779,
Umi Sushi,['Sushi Restaurant'],45.467507,-73.54176,45.46714,-73.54259,81,6.5,0.8844324704228652,2.0
Les Enfants Terribles,['French Restaurant'],45.47292,-73.538058,45.46714,-73.54259,732,6.7,0.9509780953496545,3.0
Tim Hortons,"['Restaurant', 'Cafe, Coffee, and Tea House']",45.47315,-73.540727,45.46714,-73.54259,603,6.3,0.9188005154035376,1.0
Domino's Pizza,"['Fast Food Restaurant', 'Pizzeria']",45.4674,-73.541466,45.46714,-73.54259,90,,0.883284526180157,1.0
Montreal Masala,['Indian Restaurant'],45.468046,-73.543228,45.46714,-73.54259,102,,0.3691109288977393,2.0
Bento Sushi,['Restaurant'],45.46667,-73.543863,45.46714,-73.54259,118,,0.6957010659482253,
Bagatelle Bistro,"['Fast Food Restaurant', 'Bistro', 'French Restaurant']",45.552875,-73.539781,45.55321884238814,-73.53978216648102,39,8.5,0.9498301511069462,3.0
Hoche Café,"['Coffee Shop', 'Café', 'Restaurant']",45.55247,-73.540108,45.55321884238814,-73.53978216648102,78,8.5,0.8806255124751083,2.0
État-Major,['Restaurant'],45.549476,-73.54205,45.55321884238814,-73.53978216648102,431,8.6,0.9044863535199719,
Madame Smith,"['Lounge', 'Tapas Restaurant']",45.550052,-73.54168,45.55321884238814,-73.53978216648102,370,7.9,0.9484947873960408,2.0
Poutine Centrale,"['Fast Food Restaurant', 'Burger Joint', 'Diner']",45.551436,-73.549141,45.55321884238814,-73.53978216648102,757,8.3,0.9475225489047675,2.0
Atomic Cafe,"['Fast Food Restaurant', 'Coffee Shop', 'Café']",45.545221,-73.544534,45.55321884238814,-73.53978216648102,960,8.6,0.9585451563781188,1.0
Fusion Express,"['Sushi Restaurant', 'Thai Restaurant']",45.55257,-73.552134,45.55321884238814,-73.53978216648102,971,8.5,0.9606419116785756,2.0
Théâtre Denise-Pelletier,"['Theater', 'Concert Hall']",45.551506,-73.534309,45.55321884238814,-73.53978216648102,473,7.4,0.8741126859552536,
Esplanade Financière Sun Life,['Plaza'],45.5553,-73.552026,45.55321884238814,-73.53978216648102,963,7.7,0.9655851001522783,
Restaurant la Pataterie Inc,"['Fast Food Restaurant', 'Steakhouse']",45.547753,-73.542966,45.55321884238814,-73.53978216648102,625,7.3,0.9621646948576783,1.0
Poissonnerie & Restaurant Rayan,"['Meat and Seafood Store', 'Seafood Restaurant']",45.500202,-73.631497,45.5057209331225,-73.62945914268494,608,8.5,0.9798758346023193,3.0
Restaurant Pho Lien,['Vietnamese Restaurant'],45.498922,-73.627483,45.5057209331225,-73.62945914268494,785,8.4,0.9558158603724962,2.0
Restaurant Phnom Penh,['Cambodian Restaurant'],45.505274,-73.641594,45.5057209331225,-73.62945914268494,951,7.8,0.9882511420873843,
Restaurant Nguyen Phi,['Vietnamese Restaurant'],45.501295,-73.633567,45.5057209331225,-73.62945914268494,577,7.1,0.9821482956542111,2.0
Tim Hortons,"['Restaurant', 'Cafe, Coffee, and Tea House']",45.500342,-73.630242,45.5057209331225,-73.62945914268494,592,6.9,0.9929366287923158,1.0
Ngan Dinh,['Vietnamese Restaurant'],45.497379,-73.625204,45.5057209331225,-73.62945914268494,970,7.2,0.9493030338526415,2.0
Tuk Tuk,"['Cambodian Restaurant', 'Thai Restaurant']",45.498383,-73.626109,45.5057209331225,-73.62945914268494,870,7.1,0.9195853344266136,
Brochetterie Parthenon,"['Greek Restaurant', 'Fast Food Restaurant']",45.501325,-73.632115,45.5057209331225,-73.62945914268494,556,6.7,0.9508141033149818,2.0
Sushi Plus,['Sushi Restaurant'],45.499822,-73.630661,45.5057209331225,-73.62945914268494,633,6.7,0.9817266018507672,2.0
Kam Shing Chinese Restaurant,['Chinese Restaurant'],45.503246,-73.638088,45.5057209331225,-73.62945914268494,694,6.7,0.9867869274920933,1.0
Parc la Fontaine,['Park'],45.526246,-73.569666,45.52689,-73.57264,264,9.5,0.9995197376127445,
Grillade Portuguaise ma Poule Mouillée,"['Deli', 'Portuguese Restaurant', 'Bakery']",45.525165,-73.575301,45.52689,-73.57264,280,8.9,0.9775682324001406,1.0
Café le Loup Bleu,"['Coffee Shop', 'Café', 'Restaurant']",45.528686,-73.575413,45.52689,-73.57264,280,8.8,0.9511889422513764,1.0
La Banquise,"['Poutine Restaurant', 'Fast Food Restaurant', 'Diner']",45.525348,-73.574677,45.52689,-73.57264,241,8.5,0.9902073327866933,1.0
Le Moineau Masqué,"['Coffee Shop', 'Café', 'Restaurant']",45.525508,-73.577976,45.52689,-73.57264,455,9.2,0.8968021553238843,1.0
Boulangerie Pâtisserie Mr Pinchot,"['Restaurant', 'Bakery']",45.52822,-73.57598,45.52689,-73.57264,295,8.5,0.9140213189645074,1.0
La Maison des Pâtes Fraîches,['Italian Restaurant'],45.524239,-73.576143,45.52689,-73.57264,391,8.7,0.9266369919175355,2.0
Pub Pit Caribou,"['Restaurant', 'Brewery', 'Beer Bar']",45.525105,-73.575444,45.52689,-73.57264,301,8.4,0.9502049900433408,
Chez Victoire,['French Restaurant'],45.531047,-73.576652,45.52689,-73.57264,547,8.8,0.9461169028932881,3.0
Au Pied de Cochon,['French Restaurant'],45.522115,-73.574428,45.52689,-73.57264,533,8.6,0.9344851821482957,3.0
Chez Cora,"['French Restaurant', 'Diner']",45.650443,-73.511064,45.65140583915357,-73.50041270256041,856,8.0,0.9385498418648237,1.0
Tomate Basilic,"['Mediterranean Restaurant', 'Italian Restaurant', 'Diner']",45.650994,-73.511956,45.65140583915357,-73.50041270256041,871,6.9,0.9714068173831557,2.0
Rôtisserie St-Hubert,"['South American Restaurant', 'Shipping, Freight, and Material Transportation Service']",45.65048,-73.512086,45.65140583915357,-73.50041270256041,912,6.9,0.9357385498418648,2.0
Rôtisserie Scores,"['Restaurant', 'BBQ Joint']",45.657116,-73.510151,45.65140583915357,-73.50041270256041,964,6.9,0.9225020499004334,
Thai Express,"['Restaurant', 'Thai Restaurant']",45.654806,-73.50906,45.65140583915357,-73.50041270256041,770,6.7,0.968818085978681,2.0
École Daniel Johnson - Soccer Field,['Landmarks and Outdoors'],45.650094,-73.499879,45.65140583915357,-73.50041270256041,148,,0.9709851235797119,
Tim Hortons,"['Restaurant', 'Cafe, Coffee, and Tea House']",45.655351,-73.510243,45.65140583915357,-73.50041270256041,884,6.3,0.9894927960641912,1.0
Parc Daniel-Johnson,"['Stadium', 'Sports and Recreation']",45.649967,-73.500556,45.65140583915357,-73.50041270256041,212,,0.8801569638046152,
Subway,"['Fast Food Restaurant', 'Deli']",45.654235,-73.50914,45.65140583915357,-73.50041270256041,751,,0.8676935691694975,1.0
Subway,"['Fast Food Restaurant', 'Deli']",45.654349,-73.509143,45.65140583915357,-73.50041270256041,752,,,1.0
Restaurant la Flamberge,['Restaurant'],45.605277,-73.621267,45.6062348,-73.6287838,583,7.7,0.9595759634532037,
Buona Sera,['Italian Restaurant'],45.605176,-73.626118,45.6062348,-73.6287838,266,7.3,0.9963921752372028,2.0
Da Bologna,['Italian Restaurant'],45.600312,-73.624888,45.6062348,-73.6287838,730,7.5,0.9807777907930186,2.0
Cantinho Express,['Portuguese Restaurant'],45.607365,-73.619298,45.6062348,-73.6287838,748,7.4,0.9824997071570809,2.0
Parc Aimé-Léonard,['Park'],45.610015,-73.636813,45.6062348,-73.6287838,742,6.9,0.9972238491273281,
Harvey's,['Restaurant'],45.605058,-73.618105,45.6062348,-73.6287838,856,6.7,0.9294248565069697,
Parc St-Laurent,['Park'],45.605521,-73.628702,45.6062348,-73.6287838,87,,0.9229823122876889,
KFC,['Fast Food Restaurant'],45.613647,-73.631691,45.6062348,-73.6287838,854,6.4,0.9015579243293897,1.0
Mammina,"['Italian Restaurant', 'Pizzeria']",45.605154,-73.635388,45.6062348,-73.6287838,533,,0.7715708094178283,2.0
Centrale Bergham,"['Fast Food Restaurant', 'Sandwich Spot']",45.605781,-73.621624,45.6062348,-73.6287838,575,,0.9477216820897271,1.0
Café Olimpico,"['Coffee Shop', 'Café', 'Restaurant']",45.507261,-73.553272,45.50714391928411,-73.55511903762817,153,8.8,0.9753426262152981,1.0
The Keg Steakhouse + Bar,['Restaurant'],45.50606,-73.55367,45.50714391928411,-73.55511903762817,176,8.7,0.9653391121002695,2.0
Notre-Dame Basilica of Montréal (Basilique Notre-Dame de Montréal),['Structure'],45.504425,-73.55595,45.50714391928411,-73.55511903762817,302,9.3,0.998184373901839,
Jardin Nelson,"['Bistro', 'American Restaurant', 'French Restaurant']",45.507898,-73.552662,45.50714391928411,-73.55511903762817,228,8.7,0.9720276443715591,2.0
Terrasse Place d'Armes,"['Hotel Bar', 'Restaurant']",45.505472,-73.557477,45.50714391928411,-73.55511903762817,275,8.9,0.9434344617547148,3.0
Place Vauquelin,"['Plaza', 'Museum', 'Fountain', 'Monument']",45.508602,-73.55438,45.50714391928411,-73.55511903762817,164,8.4,0.9761391589551365,
Modavie,"['Bistro', 'Wine Bar', 'French Restaurant']",45.505484,-73.554039,45.50714391928411,-73.55511903762817,210,8.5,0.9848073093592596,2.0
Château Ramezay - Historic Site and Museum of Montreal,['Museum'],45.50875,-73.55322,45.50714391928411,-73.55511903762817,231,8.5,0.9630900784819023,
Pub BreWskey,"['Brewery', 'Restaurant', 'Pub']",45.509457,-73.551404,45.50714391928411,-73.55511903762817,376,8.9,0.9873374721799227,1.0
Les Glaceurs,"['Coffee Shop', 'Restaurant', 'Bakery']",45.50488,-73.55586,45.50714391928411,-73.55511903762817,275,8.5,0.9399437741595408,3.0
Circuit Gilles Villeneuve,['Stadium'],45.500492,-73.522552,45.5063732,-73.52457672,674,8.9,0.996544453555113,
Casino de Montréal,['Casino'],45.505527,-73.52594,45.5063732,-73.52457672,111,7.6,0.9996954433641795,
Pavillon 67,['Buffet'],45.505595,-73.525858,45.5063732,-73.52457672,147,7.6,0.9775213775330912,
Parc Jean-Drapeau,['Landmarks and Outdoors'],45.503365,-73.52826,45.5063732,-73.52457672,938,9.4,0.9999531451329506,
Bidon Taverne Culinaire,"['Music Venue', 'French Restaurant', 'Gastropub']",45.502778,-73.513277,45.5063732,-73.52457672,944,8.5,0.9954766087264094,3.0
M le Montréal,"['Steakhouse', 'French Restaurant']",45.505536,-73.526001,45.5063732,-73.52457672,158,6.9,0.9970598570926555,3.0
L'Instant déli et pâtes,['Deli'],45.505597,-73.525761,45.5063732,-73.52457672,111,,0.9955605013470774,1.0
Le Cabaret du Casino,"['Casino', 'Restaurant']",45.505655,-73.525714,45.5063732,-73.52457672,123,,0.8915309827808363,
Pavillon de la Jamaique,"['Event Service', 'Other Great Outdoors']",45.505316,-73.528464,45.5063732,-73.52457672,314,,0.9146304322361485,
Lac des Régates,['Lake'],45.50344,-73.525694,45.5063732,-73.52457672,520,,0.8754597633829214,
Six Flags la Ronde,"['Amusement Park', 'Restaurant']",45.522512,-73.535053,45.52156536710626,-73.53533238172531,77,8.3,0.9977861075319199,
Goliath,['Amusement Park'],45.5263,-73.535995,45.52156536710626,-73.53533238172531,539,8.6,0.9849244465268829,
Tour de Lévis,"['Historic and Protected Site', 'Event Service']",45.517088,-73.533528,45.52156536710626,-73.53533238172531,510,7.7,0.9551716059505682,
Biosphère,['Science Museum'],45.514061,-73.531496,45.52156536710626,-73.53533238172531,892,8.2,0.9933466088789973,
Jacques Cartier Bridge (Pont Jacques-Cartier),"['Bridge', 'Gift Store']",45.520747,-73.53524,45.52156536710626,-73.53533238172531,99,,0.9991683261098747,
Queues de Castor,['Fast Food Restaurant'],45.522081,-73.533877,45.52156536710626,-73.53533238172531,141,,0.16439030104252078,1.0
Pommes d’Api,['Amusement Park'],45.522697,-73.534332,45.52156536710626,-73.53533238172531,163,,0.9178048494787396,
La Ronde - Monsieur l'Arbre,['Amusement Park'],45.522481,-73.533744,45.52156536710626,-73.53533238172531,171,,0.9762211549724727,
Le Marais Enchanté,['Amusement Park'],45.5227,-73.534138,45.52156536710626,-73.53533238172531,186,,0.8643668736089961,
La Ronde - Scène de Ribambelle,['Amusement Park'],45.522606,-73.533167,45.52156536710626,-73.53533238172531,199,,0.9237554175940026,
Ca Lem,"['Ice Cream Parlor', 'Deli']",45.46002,-73.635481,45.45750908083069,-73.6394852399826,422,8.8,0.9855687009488111,1.0
Second Cup Coffee Co,"['Coffee Shop', 'Café', 'Restaurant']",45.456103,-73.640817,45.45750908083069,-73.6394852399826,192,7.8,0.9759751669204638,1.0
Cafe 92 Degres,"['Fast Food Restaurant', 'Café']",45.462127,-73.632455,45.45750908083069,-73.6394852399826,770,8.7,0.9614150169848893,1.0
Trenholme Park,"['Park', 'Sports and Recreation']",45.460496,-73.634432,45.45750908083069,-73.6394852399826,522,7.9,0.970493147475694,
Patisserie de la Gare,"['Restaurant', 'Pastry Shop', 'Bakery']",45.452661,-73.6452,45.45750908083069,-73.6394852399826,683,7.2,0.9726775956284153,1.0
A&W Restaurant,"['Fast Food Restaurant', 'American Restaurant']",45.455759,-73.632823,45.45750908083069,-73.6394852399826,566,7.1,0.9845847487407754,1.0
Subway,"['Fast Food Restaurant', 'Deli']",45.455018,-73.641119,45.45750908083069,-73.6394852399826,297,6.1,0.9792315801803912,1.0
The G-Lounge,"['Lounge', 'College Cafeteria', 'Coffee Shop', 'Restaurant']",45.458274,-73.640212,45.45750908083069,-73.6394852399826,102,,0.874803795244231,
Concordia Stadium,"['Campground', 'Sports and Recreation']",45.457008,-73.638283,45.45750908083069,-73.6394852399826,165,,0.9696966147358557,
Oscar Peterson Concert Hall,"['Concert Hall', 'College Theater']",45.459152,-73.638935,45.45750908083069,-73.6394852399826,197,,0.9231463043223614,
Canal de Lachine (Canal-de-Lachine),['Canal'],45.478826,-73.57459,45.47256100297732,-73.56998920440674,795,9.2,0.9936980203818672,
Garage Cafe,['Restaurant'],45.465054,-73.567617,45.47256100297732,-73.56998920440674,863,9.0,0.941162000702823,
"Esplanade du Centenaire, Canal Lachine",['Park'],45.472339,-73.58077,45.47256100297732,-73.56998920440674,839,8.8,0.9659716528054352,
Havre-aux-Glaces,"['Ice Cream Parlor', 'Restaurant']",45.478917,-73.575658,45.47256100297732,-73.56998920440674,847,8.5,0.9445824059974229,1.0
Rita,['Italian Restaurant'],45.466886,-73.566901,45.47256100297732,-73.56998920440674,682,7.9,0.9460817617430011,2.0
Pizza Mia,['Pizzeria'],45.479688,-73.576844,45.47256100297732,-73.56998920440674,960,8.2,0.9055288743118192,1.0
Nouveau Delhi,['South Indian Restaurant'],45.465245,-73.566607,45.47256100297732,-73.56998920440674,856,8.0,0.8943188473702706,2.0
Parc Arthur-Therrien,['Playground'],45.466153,-73.561023,45.47256100297732,-73.56998920440674,1008,7.9,0.9846667447581118,
Beba,['Mediterranean Restaurant'],45.464825,-73.567707,45.47256100297732,-73.56998920440674,856,7.7,0.9618132833548085,2.0
Plâts de Pates Hong Mère,['Chinese Restaurant'],45.46592,-73.566919,45.47256100297732,-73.56998920440674,785,7.4,0.9518683378235914,1.0
KFC,"['Fried Chicken Joint', 'Fast Food Restaurant']",45.604288,-73.529985,45.605901731906485,-73.53436946868896,369,6.8,0.9538011010893757,1.0
Subway,"['Fast Food Restaurant', 'Deli']",45.61002,-73.527639,45.605901731906485,-73.53436946868896,710,6.4,0.9551833196673305,1.0
Parc Thomas-Chapais,"['Park', 'Sports and Recreation']",45.606797,-73.538169,45.605901731906485,-73.53436946868896,318,,0.9933817500292843,
KFC,['Fast Food Restaurant'],45.60423,-73.530032,45.605901731906485,-73.53436946868896,331,,0.35320370153449687,1.0
Broadway Pizzeria,['Pizzeria'],45.603752,-73.531182,45.605901731906485,-73.53436946868896,363,,0.9212018273398149,1.0
Jardin de l'Orchidée,['Chinese Restaurant'],45.603538,-73.530496,45.605901731906485,-73.53436946868896,379,,0.3513646480028113,2.0
Chez Ozzo BBQ,['Turkish Restaurant'],45.603889,-73.530021,45.605901731906485,-73.53436946868896,391,,0.9655499590019914,2.0
Double Pizza,['Pizzeria'],45.603658,-73.530208,45.605901731906485,-73.53436946868896,396,,0.8799578306196556,1.0
Restaurant la Belle Province,"['Hot Dog Joint', 'Fast Food Restaurant', 'Burger Joint']",45.603656,-73.530305,45.605901731906485,-73.53436946868896,401,,0.9333020967553004,1.0
Pizza Hut,"['Fast Food Restaurant', 'Pizzeria']",45.603427,-73.530395,45.605901731906485,-73.53436946868896,413,,0.9218577954785053,1.0
Parc Angrignon,['Park'],45.444536,-73.601834,45.43914465255811,-73.59173655509949,1000,8.8,0.9995665924797938,
Parc de la Reine-Élisabeth park,['Park'],45.43855,-73.592015,45.43914465255811,-73.59173655509949,75,,0.9839756354691344,
Design Conception l,"['Advertising Agency', 'Arts and Entertainment']",45.437349,-73.584143,45.43914465255811,-73.59173655509949,624,,,
"Maison Nivard-De Saint-Dizier, musée et site archéologique",['Museum'],45.43738,-73.582596,45.43914465255811,-73.59173655509949,729,,0.9384209909804381,
Centrale Pizzeria,['Pizzeria'],45.432024,-73.597364,45.43914465255811,-73.59173655509949,904,,,1.0
Centre Henri-Lemieux,['Arts and Entertainment'],45.430669,-73.594274,45.43914465255811,-73.59173655509949,974,,0.9745226660419352,
Parc à chien Angrignon,['Dog Park'],45.446051,-73.599948,45.43914465255811,-73.59173655509949,995,,0.9389949631017922,
Parc Reine Élizabeth,"['Park', 'Sports and Recreation']",45.439298,-73.591507,45.43914465255811,-73.59173655509949,24,,,
Maison Nivard-De Saint-Dizier,['History Museum'],45.437432,-73.58284,45.43914465255811,-73.59173655509949,719,,,
Le Bronx Grill,['Restaurant'],45.433625,-73.596836,45.43914465255811,-73.59173655509949,730,,,
Café de' Mercanti,"['Coffee Shop', 'Café', 'Restaurant']",45.469893,-73.627729,45.47188199358608,-73.64002168178558,967,9.0,0.9714653859669673,1.0
Benny Park,['Park'],45.467225,-73.633108,45.47188199358608,-73.64002168178558,741,7.7,0.9938620124165398,
Restaurant B & M,['American Restaurant'],45.471511,-73.63451,45.47188199358608,-73.64002168178558,425,6.8,0.9744758111748858,3.0
Mon Ami,"['Korean Restaurant', 'Diner']",45.470585,-73.63535,45.47188199358608,-73.64002168178558,372,6.7,0.97555347311702,2.0
Subway,"['Fast Food Restaurant', 'Deli']",45.470804,-73.635744,45.47188199358608,-73.64002168178558,371,6.3,0.8983952208035609,1.0
Tim Hortons,"['Restaurant', 'Cafe, Coffee, and Tea House']",45.471182,-73.647517,45.47188199358608,-73.64002168178558,607,6.4,0.8285580414665573,1.0
Parc Kensington,"['Park', 'Sports and Recreation']",45.470555,-73.63138,45.47188199358608,-73.64002168178558,3530,7.5,0.9966615907227363,
Parc Kensington,['Playground'],45.471829,-73.638343,45.47188199358608,-73.64002168178558,148,,0.979009019561907,
Dizz's Bagel & Deli,"['Deli', 'Bagel Shop']",45.475225,-73.641603,45.47188199358608,-73.64002168178558,404,,0.9717816563195502,1.0
Paris Montreal,['Pizzeria'],45.475815,-73.640558,45.47188199358608,-73.64002168178558,439,,,1.0
132 Bar Vintage,"['Lounge', 'Cocktail Bar', 'Restaurant']",45.546528,-73.665909,45.5534000891078,-73.66225451231003,810,8.3,0.87384327046972,3.0
La Bête à Pain,"['Restaurant', 'Pastry Shop', 'Bakery']",45.546759,-73.665723,45.5534000891078,-73.66225451231003,784,8.3,0.9120417008316739,1.0
L'Estaminet,['Restaurant'],45.560114,-73.657741,45.5534000891078,-73.66225451231003,837,8.0,0.9130725079067589,
Restaurant le St-Urbain,"['New American Restaurant', 'French Restaurant']",45.547046,-73.665588,45.5534000891078,-73.66225451231003,754,7.8,0.893979149584163,3.0
Les Cavistes,"['Bistro', 'Wine Bar', 'French Restaurant']",45.54578,-73.66632,45.5534000891078,-73.66225451231003,907,7.9,0.9218226543282183,2.0
Parc Ahuntsic,['Park'],45.555192,-73.667417,45.5534000891078,-73.66225451231003,251,7.2,0.9775799461169029,
Rôtisserie St-Hubert,"['South American Restaurant', 'Shipping, Freight, and Material Transportation Service']",45.554268,-73.665398,45.5534000891078,-73.66225451231003,255,6.9,0.975623755417594,2.0
Restaurant la Molisana,"['Italian Restaurant', 'Pizzeria']",45.557869,-73.659071,45.5534000891078,-73.66225451231003,556,7.0,0.8883682792550076,3.0
Martini Pizzeria,['Pizzeria'],45.550367,-73.650914,45.5534000891078,-73.66225451231003,928,7.2,0.9464448869626333,1.0
Restaurant les Brides,"['Sushi Restaurant', 'Vietnamese Restaurant']",45.553948,-73.664417,45.5534000891078,-73.66225451231003,188,6.2,0.9095701065948225,2.0
Pâtisserie Alati,"['Restaurant', 'Pastry Shop', 'Bakery']",45.57861,-73.582595,45.57414703721992,-73.57462137937546,785,8.0,0.9499590019913319,1.0
Poissonnerie Rayan,"['Fish and Chips Shop', 'Meat and Seafood Store', 'Seafood Restaurant']",45.569274,-73.583263,45.57414703721992,-73.57462137937546,880,8.0,0.96906407403069,3.0
Maison Istanbul,"['Pizzeria', 'Turkish Restaurant']",45.576723,-73.583164,45.57414703721992,-73.57462137937546,745,7.4,0.9745812346257468,2.0
A&W Restaurant,"['Fast Food Restaurant', 'American Restaurant']",45.576031,-73.583627,45.57414703721992,-73.57462137937546,732,7.3,0.9514934988871969,1.0
Tim Hortons,"['Restaurant', 'Cafe, Coffee, and Tea House']",45.575665,-73.584876,45.57414703721992,-73.57462137937546,808,7.1,0.9974932646128617,1.0
Subway,"['Fast Food Restaurant', 'Deli']",45.574116,-73.585554,45.57414703721992,-73.57462137937546,836,6.2,0.9449338175002928,1.0
Pizza Pizza,"['Fast Food Restaurant', 'Pizzeria']",45.575916,-73.58372,45.57414703721992,-73.57462137937546,750,6.1,0.8383038538128148,1.0
Wendy's,['Fast Food Restaurant'],45.575667,-73.584779,45.57414703721992,-73.57462137937546,799,6.1,0.9336183671078834,1.0
Thai Express,"['Fast Food Restaurant', 'Thai Restaurant']",45.575307,-73.582876,45.57414703721992,-73.57462137937546,653,6.0,0.9113857326929835,2.0
Le B-38 sushi,['Sushi Restaurant'],45.572006,-73.571905,45.57414703721992,-73.57462137937546,326,,0.6530865643668736,2.0
Les 3 Brasseurs,"['Bar', 'Brasserie']",45.596968,-73.560427,45.59722114932571,-73.56279015541077,178,7.3,0.9878763031509898,2.0
Parc Félix-Leclerc,['Park'],45.59038,-73.562886,45.59722114932571,-73.56279015541077,748,8.0,0.9865057982897973,
Rockaberry,"['Coffee Shop', 'Restaurant', 'Pastry Shop']",45.590524,-73.569829,45.59722114932571,-73.56279015541077,901,7.8,0.9170903127562375,1.0
La Belle & la Boeuf,"['Poutine Restaurant', 'Cocktail Bar', 'Burger Joint']",45.5998,-73.563768,45.59722114932571,-73.56279015541077,279,7.0,0.9869977743938152,1.0
Tim Hortons,"['Restaurant', 'Cafe, Coffee, and Tea House']",45.597721,-73.562586,45.59722114932571,-73.56279015541077,42,6.6,0.9729764554293078,1.0
Rôtisserie Scores,"['Restaurant', 'BBQ Joint']",45.594136,-73.573973,45.59722114932571,-73.56279015541077,923,7.3,0.972273632423568,2.0
Second Cup Coffee Co,"['Coffee Shop', 'Café', 'Restaurant']",45.600413,-73.564419,45.59722114932571,-73.56279015541077,369,6.6,0.9240834016633478,1.0
Ottavio,['Italian Restaurant'],45.595676,-73.570916,45.59722114932571,-73.56279015541077,666,6.6,0.9957713482487993,2.0
Restaurant l'Académie,"['Fish and Chips Shop', 'Pizzeria', 'French Restaurant']",45.597224,-73.561842,45.59722114932571,-73.56279015541077,43,5.8,0.9783530514232166,3.0
Tim Hortons,"['Restaurant', 'Cafe, Coffee, and Tea House']",45.598138,-73.553185,45.59722114932571,-73.56279015541077,757,6.6,0.9924329389715356,1.0
La TOHU,"['Theater', 'Music Venue']",45.558367,-73.616174,45.55984236120471,-73.61544728279114,176,8.4,0.9853929951973761,
Cirque du Soleil - Siège Social International,['Arts and Entertainment'],45.56146,-73.615016,45.55984236120471,-73.61544728279114,198,7.6,0.956342977626801,
Pho Ngon,['Vietnamese Restaurant'],45.562234,-73.607816,45.55984236120471,-73.61544728279114,655,8.3,0.9796415602670727,2.0
Tim Hortons,"['Restaurant', 'Cafe, Coffee, and Tea House']",45.553589,-73.619071,45.55984236120471,-73.61544728279114,749,8.0,0.9958416305493734,1.0
Restaurant Deli-Plus,"['Fast Food Restaurant', 'Deli']",45.550955,-73.614524,45.55984236120471,-73.61544728279114,986,6.6,0.9706805669438913,1.0
Marché Kim Hour Inc,"['Vietnamese Restaurant', 'Cantonese Restaurant', 'Seafood Restaurant']",45.561716,-73.605374,45.55984236120471,-73.61544728279114,834,6.4,0.9873726133302096,1.0
Parc Fréderic-Back,['Park'],45.560541,-73.61547,45.55984236120471,-73.61544728279114,79,,0.996720159306548,
Subway,"['Fast Food Restaurant', 'Deli']",45.562292,-73.607769,45.55984236120471,-73.61544728279114,663,6.2,0.9389832493850299,1.0
Harvey's,['Restaurant'],45.561773,-73.608092,45.55984236120471,-73.61544728279114,610,6.1,0.9842567646714302,
TOHU Cité des Arts du Cirque,['Music Venue'],45.558369,-73.616077,45.55984236120471,-73.61544728279114,170,,,
Montreal Botanical Garden (Jardin Botanique de Montréal),['Garden'],45.560002,-73.563009,45.56833021674857,-73.56666326522826,1460,9.1,0.9990629026590137,
Une nuit à Bangkok,['Thai Restaurant'],45.571018,-73.567363,45.56833021674857,-73.56666326522826,295,,0.23150989809066416,2.0
Parc de Louisiane,['Park'],45.568138,-73.572072,45.56833021674857,-73.56666326522826,410,,0.9879231580180391,
Parc de la Cité Jardin,"['Park', 'Sports and Recreation']",45.57133,-73.563202,45.56833021674857,-73.56666326522826,434,,0.9587560032798407,
Sachi Sushi,['Sushi Restaurant'],45.570912,-73.572598,45.56833021674857,-73.56666326522826,546,,0.8715005271172543,2.0
Le B-38 sushi,['Sushi Restaurant'],45.572006,-73.571905,45.56833021674857,-73.56666326522826,568,,0.6530865643668736,2.0
Clinique Pied Renaissant,['Farm'],45.572704,-73.571151,45.56833021674857,-73.56666326522826,598,,,
Parc Joseph-Paré,"['Park', 'Sports and Recreation']",45.574509,-73.569027,45.56833021674857,-73.56666326522826,746,,0.9925969310062083,
Subway,"['Fast Food Restaurant', 'Deli']",45.566821,-73.576235,45.56833021674857,-73.56666326522826,766,,0.8670610284643318,1.0
Monumental Dougherty,['Park'],45.56062,-73.564413,45.56833021674857,-73.56666326522826,854,,0.8733278669321776,
Parc Stoney Point,"['Park', 'Sports and Recreation']",45.43699,-73.706527,45.43656827071224,-73.70836973190308,183,,0.9836242239662645,
Eatalie,"['Coffee Shop', 'Café', 'Pizzeria']",45.436839,-73.705603,45.43656827071224,-73.70836973190308,216,,0.36551481785170437,1.0
Parc Brewster,"['Playground', 'Sports and Recreation']",45.436093,-73.703352,45.43656827071224,-73.70836973190308,395,,0.832751552067471,
Millennium Park,['Park'],45.440415,-73.710903,45.43656827071224,-73.70836973190308,461,,0.9614852992854632,
Parc Summerlea,['Park'],45.440415,-73.710903,45.43656827071224,-73.70836973190308,461,,0.8618249970715708,
Thai Express Lachine,['Thai Restaurant'],45.441726,-73.700163,45.43656827071224,-73.70836973190308,859,,,
Restaurant El Meson,"['Tex-Mex Restaurant', 'Diner']",45.432742,-73.67954,45.43805550384184,-73.67273926734924,805,8.5,0.9634063488344852,1.0
H8S Bar à café,"['Coffee Shop', 'Café', 'Restaurant']",45.433677,-73.683634,45.43805550384184,-73.67273926734924,994,8.6,0.9809769239779782,1.0
Il Fornetto Restaurant,"['Italian Restaurant', 'Pizzeria']",45.433153,-73.681585,45.43805550384184,-73.67273926734924,894,7.7,0.9502869860606771,2.0
Restaurant Toto Pizzeria Lachine,['Pizzeria'],45.435084,-73.676236,45.43805550384184,-73.67273926734924,438,6.8,0.8367927843504744,1.0
Pasta Andrea,['Italian Restaurant'],45.432845,-73.680027,45.43805550384184,-73.67273926734924,812,6.7,0.9556167271875367,2.0
Subway,"['Fast Food Restaurant', 'Deli']",45.442282,-73.674161,45.43805550384184,-73.67273926734924,477,6.4,0.9868806372261919,1.0
Le Quai des glaces,"['Ice Cream Parlor', 'Restaurant']",45.433675,-73.683731,45.43805550384184,-73.67273926734924,1009,6.8,0.9557924329389715,1.0
Parc Lasalle,['Park'],45.437939,-73.672803,45.43805550384184,-73.67273926734924,22,,0.9905704580063254,
Pizza Kings,['Pizzeria'],45.438073,-73.669181,45.43805550384184,-73.67273926734924,276,,0.09123813986177814,
Trans Canada Pizzeria & Submarine,['Restaurant'],45.435015,-73.671446,45.43805550384184,-73.67273926734924,341,,0.1619069930889071,
La Socca,"['Mediterranean Restaurant', 'Middle Eastern Restaurant', 'French Restaurant']",45.456557,-73.54698,45.45682318753668,-73.546804189682,39,7.9,0.9128850884385615,3.0
Boisé de l'Ile des Soeurs,['Park'],45.453702,-73.547761,45.45682318753668,-73.546804189682,352,7.9,0.9721682089727071,
Parc Elgar,['Park'],45.457555,-73.548173,45.45682318753668,-73.546804189682,45,7.0,0.9815860372496193,
Parc de la Fontaine,"['Park', 'Sports and Recreation']",45.463309,-73.544386,45.45682318753668,-73.546804189682,745,7.6,0.9773456717816563,
Parc West Vancouver,['Playground'],45.457387,-73.542411,45.45682318753668,-73.546804189682,357,7.2,0.9456366405060326,
Parc l'Oree du Fleuve,['Playground'],45.449377,-73.55106,45.45682318753668,-73.546804189682,895,7.5,0.9590957010659482,
Piano public,['Public Art'],45.45706,-73.547335,45.45682318753668,-73.546804189682,28,,0.31594236851352936,
Pizzeria 5 saveurs pizza,['Pizzeria'],45.456499,-73.547027,45.45682318753668,-73.546804189682,40,,0.7934520323298583,1.0
Tennis Elgar,['Other Great Outdoors'],45.457787,-73.54789,45.45682318753668,-73.546804189682,139,,0.5902073327866932,
Zoneresto,['Chinese Restaurant'],45.456408,-73.548717,45.45682318753668,-73.546804189682,156,,,
Arsenal,['Arts and Entertainment'],45.485245,-73.568939,45.48918571608228,-73.57190027832984,485,9.1,0.9475108351880052,
Le Bird Bar,"['Fried Chicken Joint', 'Bar']",45.488208,-73.568452,45.48918571608228,-73.57190027832984,283,8.3,0.9381515754949046,1.0
Café Lali,"['Coffee Shop', 'Café', 'Restaurant']",45.487808,-73.568585,45.48918571608228,-73.57190027832984,285,8.1,0.9068525243059623,1.0
Canadian Centre for Architecture,['Museum'],45.491024,-73.578606,45.48918571608228,-73.57190027832984,582,8.9,0.9861543867869275,
Brasseur de Montréal,"['Brewery', 'Restaurant']",45.489651,-73.564528,45.48918571608228,-73.57190027832984,566,8.6,0.9898559212838234,2.0
September Surf Café,"['Coffee Shop', 'Café', 'Restaurant']",45.483247,-73.575022,45.48918571608228,-73.57190027832984,714,8.8,0.9376478856741244,1.0
Joe Beef,"['Steakhouse', 'Gastropub', 'Seafood Restaurant']",45.483072,-73.575259,45.48918571608228,-73.57190027832984,725,8.9,0.9467025887314044,3.0
Bell Centre (Centre Bell),"['Concert Hall', 'Music Venue', 'Stadium']",45.496067,-73.569315,45.48918571608228,-73.57190027832984,790,8.8,0.9981726601850768,3.0
Burgundy Lion,"['Fast Food Restaurant', 'Bar', 'Gastropub']",45.482675,-73.575198,45.48918571608228,-73.57190027832984,751,8.7,0.945296942719925,2.0
Uncle Tetsu,"['Restaurant', 'Pastry Shop']",45.494526,-73.578967,45.48918571608228,-73.57190027832984,795,8.8,0.9515754949045332,
Restaurant Asie Moderne,"['Cambodian Restaurant', 'Thai Restaurant']",45.519321,-73.697298,45.52252484113786,-73.69143962860107,591,8.4,0.9906524540236618,1.0
Lylac,['Mediterranean Restaurant'],45.516335,-73.69608,45.52252484113786,-73.69143962860107,769,8.5,0.9952676584280192,1.0
Second Cup CAFÉ & Cie,"['Coffee Shop', 'Café', 'Restaurant']",45.515984,-73.696552,45.52252484113786,-73.69143962860107,830,7.1,0.9533208387021201,1.0
Tim Hortons,"['Restaurant', 'Cafe, Coffee, and Tea House']",45.515956,-73.684584,45.52252484113786,-73.69143962860107,911,6.6,0.9989457654913905,1.0
Parc Canin,['Dog Park'],45.523589,-73.69168,45.52252484113786,-73.69143962860107,91,,0.14509780953496546,
Park Harris,['Park'],45.522474,-73.688007,45.52252484113786,-73.69143962860107,252,,0.9860841044863535,
Mamma's Restaurant Pizzeria,['Pizzeria'],45.522619,-73.691889,45.52252484113786,-73.69143962860107,366,,0.30921869509195266,2.0
Parc Cousineau,['Park'],45.523991,-73.696782,45.52252484113786,-73.69143962860107,429,,0.988134004919761,
Parc Hartenstein,['Playground'],45.517804,-73.691189,45.52252484113786,-73.69143962860107,521,,0.9875014642145953,
Thai Express,"['Restaurant', 'Thai Restaurant']",45.518978,-73.700047,45.52252484113786,-73.69143962860107,793,5.8,0.9102729296005623,
Lylac,['Mediterranean Restaurant'],45.516335,-73.69608,45.50897852206792,-73.69856357574463,850,8.5,0.9952676584280192,1.0
Ben & Florentine,['Fast Food Restaurant'],45.512014,-73.693556,45.50897852206792,-73.69856357574463,530,7.3,0.9645074382101441,1.0
Elounda,"['Mediterranean Restaurant', 'Greek Restaurant', 'Seafood Restaurant']",45.51051,-73.686867,45.50897852206792,-73.69856357574463,900,7.5,0.9322947171137402,3.0
Second Cup CAFÉ & Cie,"['Coffee Shop', 'Café', 'Restaurant']",45.515984,-73.696552,45.50897852206792,-73.69856357574463,791,7.1,0.9533208387021201,1.0
St-Hubert Express,"['Restaurant', 'South American Restaurant']",45.51232,-73.692549,45.50897852206792,-73.69856357574463,606,6.9,0.9841162000702823,
Ottavio,"['Italian Restaurant', 'Pizzeria']",45.510113,-73.689469,45.50897852206792,-73.69856357574463,747,6.9,0.9785287571746515,2.0
Bistro Sawadika,"['Bistro', 'Thai Restaurant']",45.510289,-73.686569,45.50897852206792,-73.69856357574463,936,6.7,0.9840107766194214,2.0
Dog Park Marcel Laurin,['Dog Park'],45.508432,-73.699002,45.50897852206792,-73.69856357574463,68,,0.9505446878294482,
Allegro,['Restaurant'],45.50944,-73.697051,45.50897852206792,-73.69856357574463,128,,,
Parc Bois-Franc,['Park'],45.510207,-73.703665,45.50897852206792,-73.69856357574463,416,,0.994904533208387,
Segal Centre for Performing Arts,"['Theater', 'Music Venue']",45.488636,-73.635856,45.490494421832885,-73.63852232694626,284,8.5,0.9770645425793605,
Café Solaris,"['Lounge', 'Coffee Shop', 'Italian Restaurant']",45.486886,-73.635362,45.490494421832885,-73.63852232694626,492,8.2,0.9701651634063488,1.0
Restaurant Hoai Huong,"['Vietnamese Restaurant', 'Diner']",45.491578,-73.631016,45.490494421832885,-73.63852232694626,590,8.2,0.9441724259107415,1.0
Snowdon Deli,['Deli'],45.485202,-73.631675,45.490494421832885,-73.63852232694626,797,7.7,0.9861192456366406,2.0
KFC,['Fast Food Restaurant'],45.496588,-73.641351,45.490494421832885,-73.63852232694626,702,7.5,0.9911444301276795,1.0
Kam Shing Chinese Restaurant,['Chinese Restaurant'],45.494736,-73.637512,45.490494421832885,-73.63852232694626,480,7.1,0.9574440670024599,1.0
Second Cup Coffee Co,"['Coffee Shop', 'Café', 'Restaurant']",45.494621,-73.637605,45.490494421832885,-73.63852232694626,464,7.0,0.974018976221155,1.0
Tim Hortons,"['Restaurant', 'Cafe, Coffee, and Tea House']",45.494316,-73.638612,45.490494421832885,-73.63852232694626,416,6.6,0.9907110226074733,1.0
Tim Hortons,"['Restaurant', 'Cafe, Coffee, and Tea House']",45.485636,-73.627755,45.490494421832885,-73.63852232694626,988,7.1,0.9869040646597165,1.0
Tim Hortons,"['Restaurant', 'Cafe, Coffee, and Tea House']",45.484127,-73.631494,45.490494421832885,-73.63852232694626,880,6.9,0.9514349303033852,1.0
Restaurante Paulo & Suzanne,"['Fast Food Restaurant', 'Diner']",45.533837,-73.717238,45.5319435900764,-73.71360540390015,352,8.1,0.991554410214361,1.0
Restaurant Kuljit India,['South Indian Restaurant'],45.524554,-73.712889,45.5319435900764,-73.71360540390015,860,8.5,0.8869274920932412,2.0
Tim Hortons,"['Restaurant', 'Cafe, Coffee, and Tea House']",45.532193,-73.719701,45.5319435900764,-73.71360540390015,479,6.8,0.9801335363710906,1.0
Tim Hortons,"['Restaurant', 'Cafe, Coffee, and Tea House']",45.524468,-73.711626,45.5319435900764,-73.71360540390015,862,6.5,0.9986997774393815,1.0
Parc Sante-Odile,['Park'],45.534708,-73.711114,45.5319435900764,-73.71360540390015,359,,0.9779899262035844,
Zenbu Sushi,['Sushi Restaurant'],45.532655,-73.719329,45.5319435900764,-73.71360540390015,452,,0.9779196439030104,2.0
Tropico Plus,"['Mexican Restaurant', 'Caribbean Restaurant']",45.532125,-73.720231,45.5319435900764,-73.71360540390015,515,,0.5671078833313811,2.0
Mini Marche,"['Farm', 'Financial Planner', 'Restaurant', 'Convenience Store']",45.527051,-73.713074,45.5319435900764,-73.71360540390015,545,,,
Parc Raimbault,['Park'],45.535481,-73.717442,45.5319435900764,-73.71360540390015,567,,0.9813400491976104,
Nikos Pizza Deli,['Pizzeria'],45.532713,-73.719283,45.5319435900764,-73.71360540390015,589,,0.04088087150052712,1.0
Satay Brothers,['Asian Restaurant'],45.479959,-73.577482,45.48049514330605,-73.57782661914825,58,8.7,0.9533911210026942,2.0
Lili & Oli,"['Coffee Shop', 'Café', 'Restaurant']",45.481839,-73.577204,45.48049514330605,-73.57782661914825,145,8.9,0.9608293311467728,1.0
Atwater Cocktail Club,"['Speakeasy', 'Restaurant']",45.481306,-73.5783,45.48049514330605,-73.57782661914825,87,8.6,0.9807426496427316,3.0
Saint-Henri micro-torréfacteur,"['Coffee Shop', 'Café', 'Restaurant']",45.479374,-73.581093,45.48049514330605,-73.57782661914825,283,9.1,0.9500527117254305,2.0
Canal de Lachine (Canal-de-Lachine),['Canal'],45.478826,-73.57459,45.48049514330605,-73.57782661914825,303,9.2,0.9936980203818672,
Le Vin Papillon,"['Wine Bar', 'French Restaurant']",45.482892,-73.575689,45.48049514330605,-73.57782661914825,309,9.0,0.920206161415017,3.0
Théâtre Corona,"['Theater', 'Restaurant', 'Music Venue']",45.482908,-73.574915,45.48049514330605,-73.57782661914825,337,8.9,0.9132716410917184,
Havre-aux-Glaces,"['Ice Cream Parlor', 'Restaurant']",45.478917,-73.575658,45.48049514330605,-73.57782661914825,231,8.5,0.9445824059974229,1.0
Liverpool House,['Restaurant'],45.482896,-73.575495,45.48049514330605,-73.57782661914825,333,8.8,0.9101440787161766,3.0
Satay Brothers,"['Singaporean Restaurant', 'Fast Food Restaurant', 'Malay Restaurant']",45.479359,-73.581867,45.48049514330605,-73.57782661914825,333,8.8,0.9769005505446878,2.0
Tim Hortons,"['Restaurant', 'Cafe, Coffee, and Tea House']",45.587583,-73.632763,45.59398503487043,-73.63767206668854,810,6.5,0.9902776150872672,1.0
Aréna Garon,['Comedy Club'],45.594632,-73.638239,45.59398503487043,-73.63767206668854,97,,0.8374838936394517,
Pino Café-Bistro,"['Café', 'Restaurant']",45.594224,-73.635993,45.59398503487043,-73.63767206668854,133,,0.0467962984655031,1.0
McDonald's,"['Fast Food Restaurant', 'Burger Joint']",45.586407,-73.631899,45.59398503487043,-73.63767206668854,944,6.2,0.998324938502987,1.0
Rôtisserie St-Hubert,"['Restaurant', 'South American Restaurant']",45.587851,-73.6335,45.59398503487043,-73.63767206668854,736,6.0,0.9463980320955839,
Parc Pilon,"['Park', 'Sports and Recreation']",45.594512,-73.641293,45.59398503487043,-73.63767206668854,311,,0.9854398500644255,
Li Wah Cafe,['Chinese Restaurant'],45.590685,-73.636651,45.59398503487043,-73.63767206668854,397,,0.8502284174768654,1.0
Vincent Sous Marin Inc,['Pizzeria'],45.595089,-73.643593,45.59398503487043,-73.63767206668854,474,,0.9983015110694623,1.0
Restaurant Max Rupp,['French Restaurant'],45.599401,-73.638593,45.59398503487043,-73.63767206668854,484,,0.9610753191987818,3.0
Pizza le Regale,['Pizzeria'],45.598177,-73.640057,45.59398503487043,-73.63767206668854,493,,0.40169848893053767,1.0
Parc Lafond,['Park'],45.552052,-73.563704,45.5457759528664,-73.56217458844185,712,8.8,0.990558744289563,
Parc du Pélican,['Park'],45.544054,-73.574161,45.5457759528664,-73.56217458844185,934,8.7,0.9934988871969076,
Piri Piri Masson,"['Fast Food Restaurant', 'Portuguese Restaurant']",45.549002,-73.573981,45.5457759528664,-73.56217458844185,1007,8.1,0.943657022373199,2.0
Parc Baldwin,['Park'],45.537675,-73.566445,45.5457759528664,-73.56217458844185,1102,8.2,0.992444652688298,
Labarake,"['Steakhouse', 'Gastropub', 'French Restaurant']",45.544943,-73.561151,45.5457759528664,-73.56217458844185,124,7.0,0.9338994963101792,3.0
Deli Miami,"['Fast Food Restaurant', 'Pizzeria', 'Diner']",45.542002,-73.557616,45.5457759528664,-73.56217458844185,526,6.8,0.9860021084690173,1.0
Tandoori Masson,['Indian Restaurant'],45.548711,-73.574311,45.5457759528664,-73.56217458844185,1017,7.0,0.849537308187888,2.0
Pizza Hut,['Pizzeria'],45.53909,-73.561111,45.5457759528664,-73.56217458844185,748,6.4,0.9103549256178985,1.0
Tim Hortons,"['Restaurant', 'Cafe, Coffee, and Tea House']",45.552111,-73.555173,45.5457759528664,-73.56217458844185,888,6.2,0.9904650345554644,1.0
Restaurant la Belle Province,"['Fast Food Restaurant', 'Burger Joint']",45.5529,-73.555489,45.5457759528664,-73.56217458844185,991,6.3,0.9760688766545625,1.0
Parc Noel Sud,"['Playground', 'Sports and Recreation']",45.515322,-73.724676,45.51758306374252,-73.72661411762238,114,,0.26106360548201946,
Parc Noël-Nord,['Park'],45.517744,-73.728251,45.51758306374252,-73.72661411762238,122,,0.9929483425090782,
Parc Canin,['Dog Park'],45.517854,-73.728448,45.51758306374252,-73.72661411762238,132,,0.11282651985474991,
Pizzeria Marios,['Pizzeria'],45.51358,-73.721127,45.51758306374252,-73.72661411762238,627,5.5,0.9160946468314396,1.0
Tria Printing,"['Design Studio', 'Art Gallery']",45.512874,-73.732729,45.51758306374252,-73.72661411762238,687,,0.5975986880637226,
Parc Marlborough,['Park'],45.52263,-73.720429,45.51758306374252,-73.72661411762238,756,,0.0375658896567881,
Malborough Park,['Park'],45.524234,-73.722472,45.51758306374252,-73.72661411762238,820,,0.9926672133067822,
Bois-de-Saraguay,['Park'],45.520445,-73.737311,45.51758306374252,-73.72661411762238,872,,0.9693686306665105,
IGA extra Marché Duchemin et Frères Inc,"['Grocery Store', 'Deli']",45.518961,-73.714049,45.51758306374252,-73.72661411762238,999,,0.564612861661005,
Place des Outardes,['Playground'],45.514115,-73.714799,45.51758306374252,-73.72661411762238,1015,,0.2698723204872906,
Première Moisson,"['Dessert Shop', 'Restaurant', 'Bakery']",45.518118,-73.713583,45.51317758246596,-73.71306091547012,543,8.0,0.9832259575963453,1.0
Petinos,"['Import and Export Service', 'Restaurant']",45.518001,-73.713773,45.51317758246596,-73.71306091547012,539,7.9,0.9919058217172309,1.0
Challenger la Piazza,['Mediterranean Restaurant'],45.512823,-73.711459,45.51317758246596,-73.71306091547012,113,6.9,0.9181211198313225,2.0
Chocolats Favoris,"['Dessert Shop', 'Restaurant']",45.51841,-73.713255,45.51317758246596,-73.71306091547012,572,7.4,0.9383507086798641,1.0
Parc Philippe-Laheurte,['Park'],45.507107,-73.718331,45.51317758246596,-73.71306091547012,794,7.1,0.9413728476045449,
Subway,"['Fast Food Restaurant', 'Deli']",45.518697,-73.713119,45.51317758246596,-73.71306091547012,621,6.4,0.8687712311116317,1.0
Park Across Fabio’s House,['Park'],45.512831,-73.713737,45.51317758246596,-73.71306091547012,60,,0.9787630315098981,
Ristorante la Piazza,"['Mediterranean Restaurant', 'Italian Restaurant', 'Pizzeria']",45.512924,-73.712044,45.51317758246596,-73.71306091547012,84,,,2.0
Pizza Pizza,"['Fast Food Restaurant', 'Pizzeria']",45.518585,-73.713018,45.51317758246596,-73.71306091547012,717,6.2,0.8558392878060208,1.0
Cafe Depot Bombardier,"['Coffee Shop', 'Café', 'Restaurant']",45.51311,-73.711324,45.51317758246596,-73.71306091547012,135,,,
Patisserie Marius et Fanny,"['Restaurant', 'Pastry Shop', 'Bakery']",45.436476,-73.690791,45.43982382100397,-73.69487822055817,450,8.1,0.9853695677638514,1.0
Thai Express,['Thai Restaurant'],45.440577,-73.69282,45.43982382100397,-73.69487822055817,183,7.3,0.8990043340752021,2.0
Barroso,['Portuguese Restaurant'],45.433848,-73.691571,45.43982382100397,-73.69487822055817,731,7.3,0.9456717816563196,2.0
Tim Hortons,"['Restaurant', 'Cafe, Coffee, and Tea House']",45.435641,-73.687377,45.43982382100397,-73.69487822055817,761,6.9,0.9932528991448987,1.0
Subway,"['Fast Food Restaurant', 'Deli']",45.438919,-73.690731,45.43982382100397,-73.69487822055817,335,6.3,0.8977041115145836,1.0
Parc Grove Hill,['Park'],45.44085,-73.693361,45.43982382100397,-73.69487822055817,153,,0.9388426847838819,
Toujours Mikes,['Restaurant'],45.440464,-73.692816,45.43982382100397,-73.69487822055817,170,,0.9526531568466674,
Sushi Shop,"['Sushi Restaurant', 'Restaurant']",45.440406,-73.692862,45.43982382100397,-73.69487822055817,175,,0.8894927960641912,
"Ivan Franko Park, Montreal",['Park'],45.43805,-73.694183,45.43982382100397,-73.69487822055817,223,,0.3037132482136582,
Parc du Village St-Louis,['Park'],45.442527,-73.69458,45.43982382100397,-73.69487822055817,301,,0.9410448635351997,
Les 3 Brasseurs,"['Bar', 'Brasserie']",45.596968,-73.560427,45.6027276,-73.5579303,673,7.3,0.9878763031509898,2.0
La Belle & la Boeuf,"['Poutine Restaurant', 'Cocktail Bar', 'Burger Joint']",45.5998,-73.563768,45.6027276,-73.5579303,559,7.0,0.9869977743938152,1.0
Second Cup Coffee Co,"['Coffee Shop', 'Café', 'Restaurant']",45.600413,-73.564419,45.6027276,-73.5579303,580,6.6,0.9240834016633478,1.0
Tim Hortons,"['Restaurant', 'Cafe, Coffee, and Tea House']",45.598138,-73.553185,45.6027276,-73.5579303,634,6.6,0.9924329389715356,1.0
Tim Hortons,"['Restaurant', 'Cafe, Coffee, and Tea House']",45.597721,-73.562586,45.6027276,-73.5579303,677,6.6,0.9729764554293078,1.0
Boston Pizza,['Pizzeria'],45.600328,-73.560194,45.6027276,-73.5579303,314,5.9,0.9497013002225606,1.0
Restaurant l'Académie,"['Fish and Chips Shop', 'Pizzeria', 'French Restaurant']",45.597224,-73.561842,45.6027276,-73.5579303,698,5.8,0.9783530514232166,3.0
Yami Sushi,"['Sushi Restaurant', 'Chinese Restaurant']",45.604521,-73.552416,45.6027276,-73.5579303,482,,0.03579711842567647,2.0
Grillades Torino,"['Mediterranean Restaurant', 'Middle Eastern Restaurant']",45.600319,-73.563445,45.6027276,-73.5579303,493,,0.970739135527703,2.0
Subway,"['Fast Food Restaurant', 'Deli']",45.600432,-73.563449,45.6027276,-73.5579303,497,,0.8329506852524305,1.0
Benny&Co,['BBQ Joint'],45.609477,-73.54631,45.610926628992026,-73.54673445224762,459,7.6,0.9828276912264261,2.0
Cafe Bistro Mondavi 99,"['Fast Food Restaurant', 'Coffee Shop', 'Bistro']",45.609898,-73.547974,45.610926628992026,-73.54673445224762,145,,0.9884971301393932,1.0
Parc Verdelle,['Park'],45.610045,-73.549192,45.610926628992026,-73.54673445224762,224,,0.582324001405646,
Parc Goncourt,"['Park', 'Sports and Recreation']",45.610888,-73.55252,45.610926628992026,-73.54673445224762,442,,0.783143961579009,
Arena Chaumont,['Stadium'],45.608559,-73.541039,45.610926628992026,-73.54673445224762,498,,0.9793838584983016,
Boisé St Conrad,['Park'],45.615008,-73.542698,45.610926628992026,-73.54673445224762,559,,0.2979383858498302,
Parc Roger-Rousseau,"['Soccer Field', 'Park']",45.616831,-73.548192,45.610926628992026,-73.54673445224762,650,,0.8469134356331264,
Sushi Quynh Anh,['Sushi Restaurant'],45.613035,-73.556034,45.610926628992026,-73.54673445224762,750,,0.2385498418648237,2.0
Parc de Peterborough,"['Park', 'Sports and Recreation']",45.610626,-73.557026,45.610926628992026,-73.54673445224762,779,,0.8334426613564484,
Restaurant Memphis,['Restaurant'],45.60475,-73.552326,45.610926628992026,-73.54673445224762,785,,0.1774510952325173,
Elounda,"['Mediterranean Restaurant', 'Greek Restaurant', 'Seafood Restaurant']",45.51051,-73.686867,45.502989,-73.689113,828,7.5,0.9322947171137402,3.0
Ottavio,"['Italian Restaurant', 'Pizzeria']",45.510113,-73.689469,45.502989,-73.689113,818,6.9,0.9785287571746515,2.0
Bistro Sawadika,"['Bistro', 'Thai Restaurant']",45.510289,-73.686569,45.502989,-73.689113,846,6.7,0.9840107766194214,2.0
Parc Chamberland,"['Park', 'Sports and Recreation']",45.502898,-73.689461,45.502989,-73.689113,25,,0.9505212603959237,
Benny Express,['Middle Eastern Restaurant'],45.501133,-73.681651,45.502989,-73.689113,614,,0.9558978563898325,2.0
Tim Hortons,"['Restaurant', 'Cafe, Coffee, and Tea House']",45.503899,-73.677146,45.502989,-73.689113,934,5.8,0.9969310062082699,1.0
Édifice 750 Marcel Laurin,['Park'],45.506728,-73.683055,45.502989,-73.689113,618,,0.2913084221623521,
Chiyoko,['Restaurant'],45.501589,-73.68157,45.502989,-73.689113,625,,0.9783764788567413,4.0
Park Houde,['Park'],45.501938,-73.681195,45.502989,-73.689113,642,,0.6250322127210964,
Parc Alexis-Nihon,['Playground'],45.498218,-73.690462,45.502989,-73.689113,646,,0.9797118425676468,
Restaurant Emeraude de Bangkok,['Thai Restaurant'],45.445018,-73.72127,45.43836713933041,-73.71546685695648,887,6.2,0.9518072289156626,2.0
Dixie Park,"['Park', 'Sports and Recreation']",45.442997,-73.717571,45.43836713933041,-73.71546685695648,375,,0.6222326344148998,
Millennium Park,['Park'],45.440415,-73.710903,45.43836713933041,-73.71546685695648,417,,0.9614852992854632,
Parc Summerlea,['Park'],45.440415,-73.710903,45.43836713933041,-73.71546685695648,418,,0.8618249970715708,
Parc du Millénaire,"['Park', 'Sports and Recreation']",45.44073,-73.722618,45.43836713933041,-73.71546685695648,636,,0.8812392426850258,
Park Dorval,['Park'],45.440728,-73.722715,45.43836713933041,-73.71546685695648,641,,0.9556798623063684,
Parc Stoney Point,"['Park', 'Sports and Recreation']",45.43699,-73.706527,45.43836713933041,-73.71546685695648,767,,0.9836242239662645,
Eatalie,"['Coffee Shop', 'Café', 'Pizzeria']",45.436839,-73.705603,45.43836713933041,-73.71546685695648,788,,0.36551481785170437,1.0
Barbie's,['Restaurant'],45.444624,-73.721111,45.43836713933041,-73.71546685695648,833,5.3,0.9492254733218589,
Parc Brewster,"['Playground', 'Sports and Recreation']",45.436093,-73.703352,45.43836713933041,-73.71546685695648,977,,0.832751552067471,
Falafel St. Jacques,"['Mediterranean Restaurant', 'Middle Eastern Restaurant', 'Falafel Restaurant']",45.443222,-73.648511,45.44606092178209,-73.65079946815968,340,9.0,0.9816094646831439,1.0
Burger de Ville,['Burger Joint'],45.45327,-73.645947,45.44606092178209,-73.65079946815968,879,8.3,0.9344262295081968,1.0
Patisserie de la Gare,"['Restaurant', 'Pastry Shop', 'Bakery']",45.452661,-73.6452,45.44606092178209,-73.65079946815968,868,7.2,0.9726775956284153,1.0
Tim Hortons,"['Restaurant', 'Cafe, Coffee, and Tea House']",45.442021,-73.646246,45.44606092178209,-73.65079946815968,556,6.8,0.9979149584163055,1.0
Restaurants D Lafleur Inc,"['Fast Food Restaurant', 'Burger Joint', 'Steakhouse']",45.442321,-73.65085,45.44606092178209,-73.65079946815968,410,6.6,0.9931826168443247,1.0
L'Oeufrier,"['Café', 'Restaurant']",45.453166,-73.645459,45.44606092178209,-73.65079946815968,882,6.7,0.9234972677595629,1.0
Bibliothèque de Saint-Pierre,"['Library', 'Restaurant']",45.445713,-73.651545,45.44606092178209,-73.65079946815968,37,,0.9812463394635118,
Paulo,['Restaurant'],45.443696,-73.652976,45.44606092178209,-73.65079946815968,312,,,
Tunnel de la rue Norman,['Tunnel'],45.44922,-73.649487,45.44606092178209,-73.65079946815968,348,,0.9282769122642615,
Restaurant Boustan,['Lebanese Restaurant'],45.443635,-73.647799,45.44606092178209,-73.65079946815968,356,,,2.0
Mano Cornuto,"['Italian Restaurant', 'Cafe, Coffee, and Tea House']",45.495001,-73.558404,45.49716534003792,-73.55933010578154,224,8.8,0.9745343797586974,2.0
La Bête à Pain,"['Restaurant', 'Bakery']",45.493236,-73.558591,45.49716534003792,-73.55933010578154,462,9.3,0.9597165280543516,1.0
Olive & Gourmando,"['Sandwich Spot', 'Bakery']",45.501173,-73.556566,45.49716534003792,-73.55933010578154,518,9.3,0.9608644722970598,2.0
Deli Italien Bello,"['Fast Food Restaurant', 'Deli', 'Italian Restaurant']",45.50078,-73.556312,45.49716534003792,-73.55933010578154,471,9.0,0.9191519269064075,2.0
Parc du Canal Lachine,['Park'],45.496242,-73.553215,45.49716534003792,-73.55933010578154,517,9.2,0.9831673890125336,
Crew Collective & Café,"['Coffee Shop', 'Café', 'Restaurant']",45.502313,-73.559169,45.49716534003792,-73.55933010578154,581,9.3,0.9841864823708563,1.0
Mandy's,['Salad Restaurant'],45.50232,-73.556021,45.49716534003792,-73.55933010578154,611,9.1,0.9606184842450509,1.0
Stash Café,"['Polish Restaurant', 'Eastern European Restaurant']",45.502792,-73.555165,45.49716534003792,-73.55933010578154,691,9.1,0.9589902776150873,2.0
Gibby's,"['Steakhouse', 'French Restaurant', 'Seafood Restaurant']",45.50149351419009,-73.5550043,45.49716534003792,-73.55933010578154,587,8.7,0.9583577369099215,2.0
Square Victoria,['Plaza'],45.502118,-73.560373,45.49716534003792,-73.55933010578154,552,8.5,0.9798406934520323,
Biosphère,['Science Museum'],45.514061,-73.531496,45.51366626207095,-73.53842496871948,533,8.2,0.9933466088789973,
Grande Roue de Montréal,['Amusement Park'],45.508711,-73.548959,45.51366626207095,-73.53842496871948,988,8.8,0.9984186482370856,
Tour de Lévis,"['Historic and Protected Site', 'Event Service']",45.517088,-73.533528,45.51366626207095,-73.53842496871948,548,7.7,0.9551716059505682,
SOS Labyrinthe,['Amusement Park'],45.509383,-73.549464,45.51366626207095,-73.53842496871948,977,7.7,0.9841513412205692,
Île Sainte-Hélène,['Island'],45.515084,-73.534289,45.51366626207095,-73.53842496871948,376,,0.9926906407403069,
Restaurant le Ste-Hélène,['Bistro'],45.511739,-73.533942,45.51366626207095,-73.53842496871948,401,,0.8654328218343681,
Pokemon Go Safari Zone,['Park'],45.509087,-73.535894,45.51366626207095,-73.53842496871948,559,,0.8315098980906641,
Saint Lawrence River (Fleuve Saint-Laurent),['River'],45.511037,-73.54632,45.51366626207095,-73.53842496871948,677,,0.9950568115262973,
Yacht Club de Montreal,['Harbor or Marina'],45.511573,-73.547886,45.51366626207095,-73.53842496871948,765,,0.8971652805435164,
Jacques Cartier Bridge (Pont Jacques-Cartier),"['Bridge', 'Gift Store']",45.520747,-73.53524,45.51366626207095,-73.53842496871948,823,,0.9991683261098747,
Chez Cora,['Restaurant'],45.440245,-73.622585,45.43854405099729,-73.62021625041962,198,7.7,0.9377181679746984,1.0
Kyomi,"['Japanese Restaurant', 'Chinese Restaurant', 'Thai Restaurant']",45.438481,-73.622769,45.43854405099729,-73.62021625041962,191,7.2,0.9672250204990044,2.0
Tim Hortons,"['Restaurant', 'Cafe, Coffee, and Tea House']",45.432394,-73.628805,45.43854405099729,-73.62021625041962,940,7.4,0.9938385849830151,1.0
Subway,"['Fast Food Restaurant', 'Deli']",45.436366,-73.626181,45.43854405099729,-73.62021625041962,485,6.8,0.9411502869860606,1.0
Pizza Pizza,"['Fast Food Restaurant', 'Pizzeria']",45.438383,-73.624748,45.43854405099729,-73.62021625041962,336,6.5,0.9761040178048495,1.0
Pizza Hut,['Pizzeria'],45.440263,-73.621715,45.43854405099729,-73.62021625041962,217,6.3,0.906594822537191,1.0
Boutique O'Sushi,['Sushi Restaurant'],45.44007,-73.622821,45.43854405099729,-73.62021625041962,199,6.1,0.9431064776853696,2.0
Pâtisserie Lasalle,"['Restaurant', 'Pastry Shop', 'Bakery']",45.433835,-73.627741,45.43854405099729,-73.62021625041962,789,6.7,0.9770294014290735,1.0
Rôtisserie St-Hubert,"['Restaurant', 'South American Restaurant']",45.436121,-73.627043,45.43854405099729,-73.62021625041962,582,6.5,0.9799226894693687,2.0
Casa Grecque,"['Greek Restaurant', 'Restaurant']",45.44237,-73.615933,45.43854405099729,-73.62021625041962,534,6.2,0.982359142555933,
H8S Bar à café,"['Coffee Shop', 'Café', 'Restaurant']",45.433677,-73.683634,45.432839840726125,-73.69349151849747,759,8.6,0.9809769239779782,1.0
Patisserie Marius et Fanny,"['Restaurant', 'Pastry Shop', 'Bakery']",45.436476,-73.690791,45.432839840726125,-73.69349151849747,481,8.1,0.9853695677638514,1.0
Barroso,['Portuguese Restaurant'],45.433848,-73.691571,45.432839840726125,-73.69349151849747,184,7.3,0.9456717816563196,2.0
Il Fornetto Restaurant,"['Italian Restaurant', 'Pizzeria']",45.433153,-73.681585,45.432839840726125,-73.69349151849747,919,7.7,0.9502869860606771,2.0
Thai Express,['Thai Restaurant'],45.440577,-73.69282,45.432839840726125,-73.69349151849747,866,7.3,0.8990043340752021,2.0
Tim Hortons,"['Restaurant', 'Cafe, Coffee, and Tea House']",45.435641,-73.687377,45.432839840726125,-73.69349151849747,577,6.9,0.9932528991448987,1.0
Le Quai des glaces,"['Ice Cream Parlor', 'Restaurant']",45.433675,-73.683731,45.432839840726125,-73.69349151849747,756,6.8,0.9557924329389715,1.0
Subway,"['Fast Food Restaurant', 'Deli']",45.438919,-73.690731,45.432839840726125,-73.69349151849747,703,6.3,0.8977041115145836,1.0
Bord du Lac St-louis,['Park'],45.433202,-73.692564,45.432839840726125,-73.69349151849747,74,,0.3579360431064777,
Andrea Ristorante,"['Italian Restaurant', 'Diner']",45.43379,-73.691617,45.432839840726125,-73.69349151849747,172,5.7,0.9070399437741595,2.0
H8S Bar à café,"['Coffee Shop', 'Café', 'Restaurant']",45.433677,-73.683634,45.43579350588776,-73.6801904439926,371,8.6,0.9809769239779782,1.0
Restaurant El Meson,"['Tex-Mex Restaurant', 'Diner']",45.432742,-73.67954,45.43579350588776,-73.6801904439926,358,8.5,0.9634063488344852,1.0
Il Fornetto Restaurant,"['Italian Restaurant', 'Pizzeria']",45.433153,-73.681585,45.43579350588776,-73.6801904439926,327,7.7,0.9502869860606771,2.0
Patisserie Marius et Fanny,"['Restaurant', 'Pastry Shop', 'Bakery']",45.436476,-73.690791,45.43579350588776,-73.6801904439926,851,8.1,0.9853695677638514,1.0
Restaurant Toto Pizzeria Lachine,['Pizzeria'],45.435084,-73.676236,45.43579350588776,-73.6801904439926,304,6.8,0.8367927843504744,1.0
Barroso,['Portuguese Restaurant'],45.433848,-73.691571,45.43579350588776,-73.6801904439926,909,7.3,0.9456717816563196,2.0
Le Quai des glaces,"['Ice Cream Parlor', 'Restaurant']",45.433675,-73.683731,45.43579350588776,-73.6801904439926,392,6.8,0.9557924329389715,1.0
Pasta Andrea,['Italian Restaurant'],45.432845,-73.680027,45.43579350588776,-73.6801904439926,335,6.7,0.9556167271875367,2.0
Tim Hortons,"['Restaurant', 'Cafe, Coffee, and Tea House']",45.435641,-73.687377,45.43579350588776,-73.6801904439926,547,6.9,0.9932528991448987,1.0
Subway,"['Fast Food Restaurant', 'Deli']",45.442282,-73.674161,45.43579350588776,-73.6801904439926,858,6.4,0.9868806372261919,1.0
Jacquie et France,['Restaurant'],45.458575,-73.576264,45.45608545783109,-73.58193710446358,530,9.1,0.9517043457889188,1.0
Bagel St-Lo,"['Coffee Shop', 'Bagel Shop', 'Restaurant']",45.452973,-73.572505,45.45608545783109,-73.58193710446358,819,8.8,0.9902190465034555,1.0
Parc de la verendrye,['Park'],45.456696,-73.582057,45.45608545783109,-73.58193710446358,81,7.0,0.7095701065948226,
Palais d'Ajit,['Indian Restaurant'],45.457353,-73.572113,45.45608545783109,-73.58193710446358,789,7.0,0.9615555815860373,2.0
Mory's Original Pizza,['Pizzeria'],45.45793,-73.571647,45.45608545783109,-73.58193710446358,814,6.8,0.8992737495607356,1.0
Rôtisseries Benny & Au Coq,"['Fast Food Restaurant', 'American Restaurant', 'BBQ Joint']",45.452234,-73.572529,45.45608545783109,-73.58193710446358,851,6.8,0.9618015696380462,2.0
Pont Jolicoeur,['Bridge'],45.457122,-73.580668,45.45608545783109,-73.58193710446358,147,,0.9792198664636289,
Ville Emard Pizza & Submarines,['Restaurant'],45.457648,-73.588232,45.45608545783109,-73.58193710446358,527,,0.9889422513763617,
Parc Norman Dawe,['Park'],45.452498,-73.576311,45.45608545783109,-73.58193710446358,606,,0.9901839053531686,
Parc Willibrord,['Playground'],45.459162,-73.575315,45.45608545783109,-73.58193710446358,618,,0.9258053180274101,
Le Coq de l'Est 2015 Inc,['Restaurant'],45.602733,-73.519502,45.60962627826218,-73.52273898082785,816,8.2,0.9688415134122057,
Viet Gril Express,['Vietnamese Restaurant'],45.601768,-73.519424,45.60962627826218,-73.52273898082785,919,8.1,0.9617547147709968,2.0
KFC,"['Fried Chicken Joint', 'Fast Food Restaurant']",45.604288,-73.529985,45.60962627826218,-73.52273898082785,818,6.8,0.9538011010893757,1.0
Subway,"['Fast Food Restaurant', 'Deli']",45.61002,-73.527639,45.60962627826218,-73.52273898082785,370,6.4,0.9551833196673305,1.0
Tim Hortons,"['Fast Food Restaurant', 'Restaurant']",45.61713,-73.522888,45.60962627826218,-73.52273898082785,832,6.5,0.9842931937172775,
Restaurant le Quartier,['Restaurant'],45.607836,-73.523106,45.60962627826218,-73.52273898082785,200,,,
Miki Sushi,['Sushi Restaurant'],45.60936,-73.526551,45.60962627826218,-73.52273898082785,324,,0.37520206161415015,2.0
Domino's Pizza,"['Fast Food Restaurant', 'Pizzeria']",45.610024,-73.527445,45.60962627826218,-73.52273898082785,369,,0.9056928663464917,1.0
Restaurant le Petit Quebec,['Fast Food Restaurant'],45.608369,-73.527734,45.60962627826218,-73.52273898082785,405,,0.9818671664519152,1.0
Pâtisserie Mama Sofia,['Latin American Restaurant'],45.606127,-73.528975,45.60962627826218,-73.52273898082785,621,,,
Stade de soccer de Montréal,['Stadium'],45.562607,-73.639155,45.55988367688166,-73.63356828689575,470,8.3,0.9802038186716645,
Parc Frédéric-Back – Complexe environnemental de Saint-Michel,['Garden'],45.563672,-73.63439,45.55988367688166,-73.63356828689575,409,,0.9919878177345671,
Le Off Packers' Stadium,['Stadium'],45.555238,-73.632702,45.55988367688166,-73.63356828689575,532,,0.9641560267072742,
Parc Jean-martucci,['Park'],45.557099,-73.641589,45.55988367688166,-73.63356828689575,710,,0.6298231228768888,
Parc du Boisé de St-Sulpice,['Park'],45.556814,-73.641628,45.55988367688166,-73.63356828689575,717,,0.9945765491390418,
Club Gymnix,"['Playground', 'Gym and Studio']",45.553041,-73.637234,45.55988367688166,-73.63356828689575,799,,0.3869860606770528,
Complexe environnemental de Saint-Michel,['Park'],45.562889,-73.62835,45.55988367688166,-73.63356828689575,525,,,
Exprima,['Art Gallery'],45.561926,-73.641799,45.55988367688166,-73.63356828689575,679,,,
Performance Softball,"['Sporting Goods Retail', 'Hiking Trail']",45.552907,-73.632769,45.55988367688166,-73.63356828689575,777,,,
Camp de jour Sports Montréal,['Campground'],45.552287,-73.637937,45.55988367688166,-73.63356828689575,910,,,
Bagel St-Lo,"['Coffee Shop', 'Bagel Shop', 'Restaurant']",45.452973,-73.572505,45.44693448484644,-73.57219934463501,661,8.8,0.9902190465034555,1.0
Frejus St Raphael Cafe,"['Café', 'Restaurant']",45.44922,-73.572772,45.44693448484644,-73.57219934463501,258,7.7,0.9534145484362189,1.0
Parc du Quai-de-la-Tortue,['Park'],45.447545,-73.571364,45.44693448484644,-73.57219934463501,89,7.2,0.9696263324352817,
Rôtisseries Benny & Au Coq,"['Fast Food Restaurant', 'American Restaurant', 'BBQ Joint']",45.452234,-73.572529,45.44693448484644,-73.57219934463501,585,6.8,0.9618015696380462,2.0
Woodland Restaurant,"['Fast Food Restaurant', 'Pizzeria']",45.452552,-73.568089,45.44693448484644,-73.57219934463501,718,6.8,0.9757877474522666,1.0
Rivoli,['Pool Hall'],45.447172,-73.572996,45.44693448484644,-73.57219934463501,67,,,
Parc Honorable George O'Reilly,['Park'],45.446154,-73.57277,45.44693448484644,-73.57219934463501,96,,0.9444652688297996,
Cafe Frejus,['Restaurant'],45.449228,-73.572385,45.44693448484644,-73.57219934463501,255,,,
Parc Hadley,['Park'],45.444031,-73.576668,45.44693448484644,-73.57219934463501,498,,0.9916832610987466,
Pizzeria Geppetto,"['Italian Restaurant', 'Pizzeria']",45.451778,-73.572612,45.44693448484644,-73.57219934463501,537,,0.9418882511420874,2.0
Vincent Sous-Marins,['Restaurant'],45.592739,-73.59227,45.5904902,-73.5902694,290,7.8,0.3049314747569404,
La Bella Italiana,"['Coffee Shop', 'Italian Restaurant', 'Pizzeria']",45.585662,-73.579668,45.5904902,-73.5902694,970,8.3,0.9824177111397446,4.0
Café Victoria's,"['Coffee Shop', 'Café', 'Italian Restaurant']",45.598339,-73.590899,45.5904902,-73.5902694,878,7.5,0.9144195853344266,1.0
Centre Leonardo Da Vinci,['Arts and Entertainment'],45.585485,-73.596692,45.5904902,-73.5902694,748,7.4,0.9933114677287104,
Restaurant Di Menna,['Italian Restaurant'],45.593436,-73.583218,45.5904902,-73.5902694,635,7.2,0.9709616961461872,3.0
Jarry Smoked Meat,"['Deli', 'BBQ Joint', 'Diner']",45.595696,-73.581108,45.5904902,-73.5902694,887,7.0,0.968888368279255,1.0
Radikal Dezzertz,"['Ice Cream Parlor', 'Restaurant']",45.587682,-73.597686,45.5904902,-73.5902694,649,6.7,0.8371793370036312,1.0
Parc Delorme,['Park'],45.591208,-73.589309,45.5904902,-73.5902694,204,,0.9935223146304323,
Cafe Vanessa,"['Fast Food Restaurant', 'Coffee Shop', 'Café']",45.593204,-73.5918,45.5904902,-73.5902694,315,,0.02007731053063137,2.0
Hôtel Howard Johnson,"['Parking', 'Stadium', 'Hotel', 'Garden', 'Motel']",45.588283,-73.584993,45.5904902,-73.5902694,480,,0.8625395337940729,
Phuket,['Thai Restaurant'],45.577328,-73.598027,45.57940569041942,-73.60258877277374,441,8.6,0.9818203115848658,2.0
Café Milano,"['Coffee Shop', 'Bistro', 'Italian Restaurant']",45.582094,-73.592943,45.57940569041942,-73.60258877277374,804,8.5,0.9941314279020733,2.0
Centre Leonardo Da Vinci,['Arts and Entertainment'],45.585485,-73.596692,45.57940569041942,-73.60258877277374,815,7.4,0.9933114677287104,
Radikal Dezzertz,"['Ice Cream Parlor', 'Restaurant']",45.587682,-73.597686,45.57940569041942,-73.60258877277374,1006,6.7,0.8371793370036312,1.0
Pizza Pizza,"['Fast Food Restaurant', 'Pizzeria']",45.585246,-73.605563,45.57940569041942,-73.60258877277374,634,6.1,0.9782359142555933,1.0
Parc Luigi-Pirandello,"['Park', 'Sports and Recreation']",45.580107,-73.603891,45.57940569041942,-73.60258877277374,162,,0.9968841513412205,
Subway,"['Fast Food Restaurant', 'Deli']",45.571775,-73.602697,45.57940569041942,-73.60258877277374,850,6.2,0.9769708328452618,1.0
Steve Sports Bar,['Pool Hall'],45.576981,-73.598307,45.57940569041942,-73.60258877277374,438,,0.6908984420756706,2.0
Detour Rotisserie,['Restaurant'],45.576748,-73.59859,45.57940569041942,-73.60258877277374,439,,0.7270352582874546,
Pho Mai,['Asian Restaurant'],45.576399,-73.598967,45.57940569041942,-73.60258877277374,446,,0.9830853929951974,2.0
Crazy Falafel,"['Lebanese Restaurant', 'Fast Food Restaurant', 'Falafel Restaurant']",45.520362,-73.675143,45.5200557245067,-73.67795147001743,232,7.5,0.976584280192105,1.0
Decarie Hot Dog,"['Hot Dog Joint', 'Poutine Restaurant', 'Fast Food Restaurant']",45.513691,-73.681551,45.5200557245067,-73.67795147001743,778,7.7,0.976619421342392,1.0
A&W Restaurant,"['Fast Food Restaurant', 'American Restaurant']",45.513951,-73.682674,45.5200557245067,-73.67795147001743,783,7.5,0.9888485416422631,1.0
Kyoto Restaurants Japonais,['Sushi Restaurant'],45.512539,-73.679622,45.5200557245067,-73.67795147001743,850,7.4,0.9601265081410332,2.0
Vai Burger,['Fast Food Restaurant'],45.513543,-73.683193,45.5200557245067,-73.67795147001743,847,7.3,0.8346726016164929,1.0
Pizza Hut,"['Pizzeria', 'Restaurant']",45.513127,-73.676009,45.5200557245067,-73.67795147001743,777,6.8,0.9771816797469837,1.0
Tim Hortons,"['Restaurant', 'Cafe, Coffee, and Tea House']",45.515956,-73.684584,45.5200557245067,-73.67795147001743,702,6.6,0.9989457654913905,1.0
Pho Thanh Nam Quan,['Vietnamese Restaurant'],45.520147,-73.674555,45.5200557245067,-73.67795147001743,257,5.9,0.9881105774862364,2.0
Parc Beaulac,['Park'],45.519965,-73.677746,45.5200557245067,-73.67795147001743,24,,0.846116902893288,
Poulet Bronzé,['Restaurant'],45.521295,-73.674012,45.5200557245067,-73.67795147001743,336,,,
Restaurant Asie Moderne,"['Cambodian Restaurant', 'Thai Restaurant']",45.519321,-73.697298,45.52591381815231,-73.68911147117615,980,8.4,0.9906524540236618,1.0
Spartans Football,['Stadium'],45.527033,-73.68739,45.52591381815231,-73.68911147117615,198,,0.8226191870680567,
Parc Cousineau,"['Park', 'Sports and Recreation']",45.522615,-73.692082,45.52591381815231,-73.68911147117615,347,,0.2377298816914607,
Parc Canin,['Dog Park'],45.523589,-73.69168,45.52591381815231,-73.68911147117615,348,,0.14509780953496546,
Park Harris,['Park'],45.522474,-73.688007,45.52591381815231,-73.68911147117615,385,,0.9860841044863535,
Parc saint-laurent,['Park'],45.527488,-73.68474,45.52591381815231,-73.68911147117615,385,,0.9970949982429425,
Mamma's Restaurant Pizzeria,['Pizzeria'],45.522619,-73.691889,45.52591381815231,-73.68911147117615,471,,0.30921869509195266,2.0
Parc Cousineau,['Park'],45.523991,-73.696782,45.52591381815231,-73.68911147117615,617,,0.988134004919761,
Parc Hartenstein,['Playground'],45.517804,-73.691189,45.52591381815231,-73.68911147117615,914,,0.9875014642145953,
Coronet Pizza,['Pizzeria'],45.519659,-73.697406,45.52591381815231,-73.68911147117615,961,,0.05833430947639686,1.0
Pho Ngon,['Vietnamese Restaurant'],45.562234,-73.607816,45.5616903,-73.610512,226,8.3,0.9796415602670727,2.0
La TOHU,"['Theater', 'Music Venue']",45.558367,-73.616174,45.5616903,-73.610512,568,8.4,0.9853929951973761,
Cirque du Soleil - Siège Social International,['Arts and Entertainment'],45.56146,-73.615016,45.5616903,-73.610512,336,7.6,0.956342977626801,
Subway,"['Fast Food Restaurant', 'Deli']",45.562292,-73.607769,45.5616903,-73.610512,229,6.2,0.9389832493850299,1.0
Harvey's,['Restaurant'],45.561773,-73.608092,45.5616903,-73.610512,188,6.1,0.9842567646714302,
Rang Dong Restaurant,['Restaurant'],45.560958,-73.611799,45.5616903,-73.610512,129,,,
CAFÉ BISTRO JARRY 2e & traiteur Montréal,['Restaurant'],45.560266,-73.612261,45.5616903,-73.610512,208,,,
Tim Hortons,"['Restaurant', 'Cafe, Coffee, and Tea House']",45.564026,-73.609135,45.5616903,-73.610512,268,5.4,0.9928663464917419,1.0
Parc Fréderic-Back,['Park'],45.560541,-73.61547,45.5616903,-73.610512,419,,0.996720159306548,
Cirque du Soleil,['Circus'],45.562217,-73.616883,45.5616903,-73.610512,499,,0.9112100269415485,
Chez Cora,['Restaurant'],45.440245,-73.622585,45.44527192876118,-73.62448364496231,636,7.7,0.9377181679746984,1.0
Kyomi,"['Japanese Restaurant', 'Chinese Restaurant', 'Thai Restaurant']",45.438481,-73.622769,45.44527192876118,-73.62448364496231,767,7.2,0.9672250204990044,2.0
Subway,"['Fast Food Restaurant', 'Deli']",45.436366,-73.626181,45.44527192876118,-73.62448364496231,970,6.8,0.9411502869860606,1.0
A&W Restaurant,"['Fast Food Restaurant', 'American Restaurant']",45.448013,-73.61491,45.44527192876118,-73.62448364496231,801,6.6,0.9563898324938503,1.0
Pizza Pizza,"['Fast Food Restaurant', 'Pizzeria']",45.438383,-73.624748,45.44527192876118,-73.62448364496231,777,6.5,0.9761040178048495,1.0
Pizza Hut,['Pizzeria'],45.440263,-73.621715,45.44527192876118,-73.62448364496231,602,6.3,0.906594822537191,1.0
Restaurant Eggsquis,['Restaurant'],45.440615,-73.621147,45.44527192876118,-73.62448364496231,606,6.3,0.9723322010073796,1.0
KFC,['Fast Food Restaurant'],45.447835,-73.615243,45.44527192876118,-73.62448364496231,745,6.3,0.9691460700480262,1.0
Boutique O'Sushi,['Sushi Restaurant'],45.44007,-73.622821,45.44527192876118,-73.62448364496231,637,6.1,0.9431064776853696,2.0
Casa Grecque,"['Greek Restaurant', 'Restaurant']",45.44237,-73.615933,45.44527192876118,-73.62448364496231,748,6.2,0.982359142555933,
Parc de la Cité-du-Havre,"['Scenic Lookout', 'Park', 'Nature Preserve', 'Sports and Recreation']",45.500002,-73.544181,45.501863463435576,-73.5439610481262,383,8.6,0.9456014993557456,
Stash Café,"['Polish Restaurant', 'Eastern European Restaurant']",45.502792,-73.555165,45.501863463435576,-73.5439610481262,894,9.1,0.9589902776150873,2.0
Grande Roue de Montréal,['Amusement Park'],45.508711,-73.548959,45.501863463435576,-73.5439610481262,825,8.8,0.9984186482370856,
Parc du Canal Lachine,['Park'],45.496242,-73.553215,45.501863463435576,-73.5439610481262,937,9.2,0.9831673890125336,
Olive & Gourmando,"['Sandwich Spot', 'Bakery']",45.501173,-73.556566,45.501863463435576,-73.5439610481262,959,9.3,0.9608644722970598,2.0
Pub Wolf & Workman,"['Restaurant', 'Pub']",45.503875,-73.554957,45.501863463435576,-73.5439610481262,862,8.8,0.9599976572566475,
Notre-Dame Basilica of Montréal (Basilique Notre-Dame de Montréal),['Structure'],45.504425,-73.55595,45.501863463435576,-73.5439610481262,1008,9.3,0.998184373901839,
Deli Italien Bello,"['Fast Food Restaurant', 'Deli', 'Italian Restaurant']",45.50078,-73.556312,45.501863463435576,-73.5439610481262,935,9.0,0.9191519269064075,2.0
Cold Room,"['Speakeasy', 'Restaurant']",45.507097,-73.552928,45.501863463435576,-73.5439610481262,912,8.9,0.9355862715239546,3.0
Barroco,"['Spanish Restaurant', 'Italian Restaurant', 'French Restaurant']",45.501356,-73.555942,45.501863463435576,-73.5439610481262,949,9.0,0.9285229003162704,4.0
Manzo Pizzeria,['Pizzeria'],45.42735,-73.639225,45.42505966615074,-73.64959917962551,836,8.4,0.9911795712779665,1.0
Moulin Fleming,['History Museum'],45.426116,-73.66007,45.42505966615074,-73.64959917962551,910,7.1,0.9556987232048729,
Restaurant Habanos,"['Bistro', 'Cuban Restaurant']",45.423014,-73.65107,45.42505966615074,-73.64959917962551,235,,0.9182616844324705,2.0
Subway,"['Fast Food Restaurant', 'Deli']",45.433185,-73.647931,45.42505966615074,-73.64959917962551,916,6.2,0.9661473585568701,1.0
Lasalle community gardens,['Garden'],45.426428,-73.65336,45.42505966615074,-73.64959917962551,359,,0.5080590371324821,
Parc Tortue,['Playground'],45.425946,-73.654698,45.42505966615074,-73.64959917962551,422,,0.07460466205927141,
Parc des Saints-Anges,['Historic and Protected Site'],45.424434,-73.656387,45.42505966615074,-73.64959917962551,551,,0.5828159775096639,
V-Lounge,"['Lounge', 'Arts and Entertainment']",45.423782,-73.641523,45.42505966615074,-73.64959917962551,635,,0.9193862012416539,3.0
Double Pizza,['Pizzeria'],45.423436,-73.641802,45.42505966615074,-73.64959917962551,666,,0.6455195033384092,1.0
Charcuterie Transelvania,"['Meat and Seafood Store', 'Restaurant']",45.431097,-73.647329,45.42505966615074,-73.64959917962551,693,,,1.0
Parc Angrignon,['Park'],45.444536,-73.601834,45.44404309237571,-73.61375212669373,820,8.8,0.9995665924797938,
Chez Cora,['Restaurant'],45.440245,-73.622585,45.44404309237571,-73.61375212669373,797,7.7,0.9377181679746984,1.0
Kyomi,"['Japanese Restaurant', 'Chinese Restaurant', 'Thai Restaurant']",45.438481,-73.622769,45.44404309237571,-73.61375212669373,930,7.2,0.9672250204990044,2.0
A&W Restaurant,"['Fast Food Restaurant', 'American Restaurant']",45.448013,-73.61491,45.44404309237571,-73.61375212669373,472,6.6,0.9563898324938503,1.0
Casa Grecque,"['Greek Restaurant', 'Restaurant']",45.44237,-73.615933,45.44404309237571,-73.61375212669373,257,6.2,0.982359142555933,
KFC,['Fast Food Restaurant'],45.447835,-73.615243,45.44404309237571,-73.61375212669373,430,6.3,0.9691460700480262,1.0
Cage Aux Sports,"['Sports Bar', 'Restaurant']",45.447095,-73.612606,45.44404309237571,-73.61375212669373,349,6.0,0.9779430713365351,
Restaurant Eggsquis,['Restaurant'],45.440615,-73.621147,45.44404309237571,-73.61375212669373,689,6.3,0.9723322010073796,1.0
Pizza Hut,['Pizzeria'],45.440263,-73.621715,45.44404309237571,-73.61375212669373,741,6.3,0.906594822537191,1.0
Dragon D’or,['Cantonese Restaurant'],45.443951,-73.616372,45.44404309237571,-73.61375212669373,192,,0.2324118542813635,1.0
La Bête à Pain,"['Restaurant', 'Bakery']",45.493236,-73.558591,45.49276061084002,-73.55641052126883,151,9.3,0.9597165280543516,1.0
Mano Cornuto,"['Italian Restaurant', 'Cafe, Coffee, and Tea House']",45.495001,-73.558404,45.49276061084002,-73.55641052126883,317,8.8,0.9745343797586974,2.0
Zibo,['Restaurant'],45.492931,-73.556838,45.49276061084002,-73.55641052126883,45,7.9,0.9811760571629378,
Parc du Canal Lachine,['Park'],45.496242,-73.553215,45.49276061084002,-73.55641052126883,469,9.2,0.9831673890125336,
Fonderie Darling,['Art Gallery'],45.497703,-73.556795,45.49276061084002,-73.55641052126883,552,8.8,0.915005271172543,
Restaurant Da Emma,['Italian Restaurant'],45.495674,-73.553197,45.49276061084002,-73.55641052126883,418,8.4,0.9349185896685018,2.0
Pizzeria Moretti,"['Italian Restaurant', 'Pizzeria']",45.493485,-73.557533,45.49276061084002,-73.55641052126883,105,7.7,0.9568115262972942,2.0
La Dispensa,"['Café', 'Restaurant']",45.498769,-73.557458,45.49276061084002,-73.55641052126883,679,9.0,0.9639100386552654,1.0
New City Gas,"['Theater', 'Bar', 'Music Venue']",45.495303,-73.557494,45.49276061084002,-73.55641052126883,310,7.9,0.9640271758228885,
Brasseur de Montréal,"['Brewery', 'Restaurant']",45.489651,-73.564528,45.49276061084002,-73.55641052126883,730,8.6,0.9898559212838234,2.0
Parc du Canal Lachine,['Park'],45.496242,-73.553215,45.49750375338383,-73.55284452438353,148,9.2,0.9831673890125336,
La Dispensa,"['Café', 'Restaurant']",45.498769,-73.557458,45.49750375338383,-73.55284452438353,381,9.0,0.9639100386552654,1.0
Deli Italien Bello,"['Fast Food Restaurant', 'Deli', 'Italian Restaurant']",45.50078,-73.556312,45.49750375338383,-73.55284452438353,419,9.0,0.9191519269064075,2.0
Olive & Gourmando,"['Sandwich Spot', 'Bakery']",45.501173,-73.556566,45.49750375338383,-73.55284452438353,498,9.3,0.9608644722970598,2.0
Barroco,"['Spanish Restaurant', 'Italian Restaurant', 'French Restaurant']",45.501356,-73.555942,45.49750375338383,-73.55284452438353,505,9.0,0.9285229003162704,4.0
Mano Cornuto,"['Italian Restaurant', 'Cafe, Coffee, and Tea House']",45.495001,-73.558404,45.49750375338383,-73.55284452438353,502,8.8,0.9745343797586974,2.0
Jellyfish Crudo+Charbon,['Seafood Restaurant'],45.498887,-73.554412,45.49750375338383,-73.55284452438353,215,8.0,0.9300573972121354,3.0
Gibby's,"['Steakhouse', 'French Restaurant', 'Seafood Restaurant']",45.50149351419009,-73.5550043,45.49750375338383,-73.55284452438353,474,8.7,0.9583577369099215,2.0
Mandy's,['Salad Restaurant'],45.50232,-73.556021,45.49750375338383,-73.55284452438353,597,9.1,0.9606184842450509,1.0
Stash Café,"['Polish Restaurant', 'Eastern European Restaurant']",45.502792,-73.555165,45.49750375338383,-73.55284452438353,614,9.1,0.9589902776150873,2.0
L'Usine de Spaghetti,['Italian Restaurant'],45.508131,-73.552379,45.50761009451047,-73.55183601379395,63,8.9,0.9675764320018742,2.0
Jardin Nelson,"['Bistro', 'American Restaurant', 'French Restaurant']",45.507898,-73.552662,45.50761009451047,-73.55183601379395,66,8.7,0.9720276443715591,2.0
Le Club Chasse et Pêche,['French Restaurant'],45.50887,-73.552354,45.50761009451047,-73.55183601379395,140,9.0,0.9300925383624224,3.0
Café Olimpico,"['Coffee Shop', 'Café', 'Restaurant']",45.507261,-73.553272,45.50761009451047,-73.55183601379395,114,8.8,0.9753426262152981,1.0
Pub BreWskey,"['Brewery', 'Restaurant', 'Pub']",45.509457,-73.551404,45.50761009451047,-73.55183601379395,199,8.9,0.9873374721799227,1.0
Perché,"['Mexican Restaurant', 'Bar']",45.507374,-73.553275,45.50761009451047,-73.55183601379395,89,8.3,0.9450275272343914,
Grande Roue de Montréal,['Amusement Park'],45.508711,-73.548959,45.50761009451047,-73.55183601379395,259,8.8,0.9984186482370856,
Château Ramezay - Historic Site and Museum of Montreal,['Museum'],45.50875,-73.55322,45.50761009451047,-73.55183601379395,166,8.5,0.9630900784819023,
The Keg Steakhouse + Bar,['Restaurant'],45.50606,-73.55367,45.50761009451047,-73.55183601379395,230,8.7,0.9653391121002695,2.0
Place Vauquelin,"['Plaza', 'Museum', 'Fountain', 'Monument']",45.508602,-73.55438,45.50761009451047,-73.55183601379395,239,8.4,0.9761391589551365,
Pub Wolf & Workman,"['Restaurant', 'Pub']",45.503875,-73.554957,45.50424245563397,-73.553469479084,118,8.8,0.9599976572566475,
Notre-Dame Basilica of Montréal (Basilique Notre-Dame de Montréal),['Structure'],45.504425,-73.55595,45.50424245563397,-73.553469479084,225,9.3,0.998184373901839,
Galerie le Royer,['Art Gallery'],45.504801,-73.554114,45.50424245563397,-73.553469479084,82,8.5,0.9583811643434462,
Stash Café,"['Polish Restaurant', 'Eastern European Restaurant']",45.502792,-73.555165,45.50424245563397,-73.553469479084,223,9.1,0.9589902776150873,2.0
The Keg Steakhouse + Bar,['Restaurant'],45.50606,-73.55367,45.50424245563397,-73.553469479084,191,8.7,0.9653391121002695,2.0
Modavie,"['Bistro', 'Wine Bar', 'French Restaurant']",45.505484,-73.554039,45.50424245563397,-73.553469479084,138,8.5,0.9848073093592596,2.0
Le Petit Dep,"['Deli', 'Café']",45.503073,-73.555319,45.50424245563397,-73.553469479084,193,8.6,0.9587208621295537,
Terrasse Nelligan,['French Restaurant'],45.504172,-73.554337,45.50424245563397,-73.553469479084,70,8.2,0.9340166334778025,2.0
Mandy's,['Salad Restaurant'],45.50232,-73.556021,45.50424245563397,-73.553469479084,315,9.1,0.9606184842450509,1.0
Les Glaceurs,"['Coffee Shop', 'Restaurant', 'Bakery']",45.50488,-73.55586,45.50424245563397,-73.553469479084,200,8.5,0.9399437741595408,3.0
Gentile Bar,['Italian Restaurant'],45.538302,-73.654432,45.53830765459552,-73.6548838019371,32,8.3,0.9093944008433876,2.0
Restaurant Nostos Souvlaki,"['Greek Restaurant', 'Fast Food Restaurant']",45.534333,-73.661772,45.53830765459552,-73.6548838019371,694,8.9,0.999074616375776,2.0
Bloc Shop,"['Rock Climbing Spot', 'Climbing Gym']",45.531982,-73.657708,45.53830765459552,-73.6548838019371,739,8.1,0.9804146655733864,
Patisserie Mahrouse,"['Middle Eastern Restaurant', 'Pastry Shop', 'Bakery']",45.535551,-73.663596,45.53830765459552,-73.6548838019371,807,7.5,0.9904884619889891,
Restaurant Pasta Bar,['Italian Restaurant'],45.540717,-73.65306,45.53830765459552,-73.6548838019371,302,6.9,0.9303736675647183,2.0
Restaurant Shish-Kebab,"['Lebanese Restaurant', 'Diner']",45.53344,-73.65863,45.53830765459552,-73.6548838019371,598,6.7,0.27315216118074265,2.0
Tim Hortons,"['Restaurant', 'Cafe, Coffee, and Tea House']",45.53305,-73.652849,45.53830765459552,-73.6548838019371,616,6.7,0.9964624575377767,1.0
La Prep,"['Café', 'Restaurant']",45.539033,-73.654796,45.53830765459552,-73.6548838019371,85,5.9,0.9816328921166686,1.0
Sharky's,['Pool Hall'],45.533491,-73.658874,45.53830765459552,-73.6548838019371,584,6.4,0.0479793838584983,
McDonald's,"['Fast Food Restaurant', 'Burger Joint']",45.5347,-73.659897,45.53830765459552,-73.6548838019371,568,6.2,0.9917535433993206,1.0
Brasseur de Montréal,"['Brewery', 'Restaurant']",45.489651,-73.564528,45.48972725318433,-73.56406286358833,47,8.6,0.9898559212838234,2.0
Grinder,"['Steakhouse', 'Gastropub']",45.488786,-73.567986,45.48972725318433,-73.56406286358833,323,8.8,0.9281129202295888,3.0
Foxy,['BBQ Joint'],45.489363,-73.567521,45.48972725318433,-73.56406286358833,286,8.6,0.9435515989223381,2.0
Restaurant Candide,['Restaurant'],45.48833,-73.568069,45.48972725318433,-73.56406286358833,357,8.6,0.9359493967435868,
Perles et Paddock,['Restaurant'],45.487698,-73.568387,45.48972725318433,-73.56406286358833,421,8.8,0.9148412791378705,4.0
Le Bureau Bar a Tapas,"['Tapas Restaurant', 'Cocktail Bar']",45.489363,-73.567521,45.48972725318433,-73.56406286358833,268,8.3,0.908480730935926,3.0
La Bête à Pain,"['Restaurant', 'Bakery']",45.493236,-73.558591,45.48972725318433,-73.56406286358833,582,9.3,0.9597165280543516,1.0
Arsenal,['Arts and Entertainment'],45.485245,-73.568939,45.48972725318433,-73.56406286358833,608,9.1,0.9475108351880052,
Le Bird Bar,"['Fried Chicken Joint', 'Bar']",45.488208,-73.568452,45.48972725318433,-73.56406286358833,377,8.3,0.9381515754949046,1.0
Café Lali,"['Coffee Shop', 'Café', 'Restaurant']",45.487808,-73.568585,45.48972725318433,-73.56406286358833,420,8.1,0.9068525243059623,1.0
Pub BreWskey,"['Brewery', 'Restaurant', 'Pub']",45.509457,-73.551404,45.51086,-73.54983,208,8.9,0.9873374721799227,1.0
Grande Roue de Montréal,['Amusement Park'],45.508711,-73.548959,45.51086,-73.54983,276,8.8,0.9984186482370856,
Le Club Chasse et Pêche,['French Restaurant'],45.50887,-73.552354,45.51086,-73.54983,315,9.0,0.9300925383624224,3.0
L'Usine de Spaghetti,['Italian Restaurant'],45.508131,-73.552379,45.51086,-73.54983,366,8.9,0.9675764320018742,2.0
Jardin Nelson,"['Bistro', 'American Restaurant', 'French Restaurant']",45.507898,-73.552662,45.51086,-73.54983,377,8.7,0.9720276443715591,2.0
